~Version Information
VERS.                     2.0 : CWLS Log ASCII Standart
WRAP.                     NO  : One line per depth step
~Well Information
STRT.M                      2020.3000  : Start Depth
STOP.M                      3250.0000  : Stop Depth
STEP.M                         0.1000  : Step
NULL.                         -999.25  : Null Value
COMP.      ООО"Кубаньгазпром"          : Company
WELL.      2р                          : Well
FLD .      Восточно-Прибрежная         : Field
LOC .                                  : Location
PROV.                                  : Province
SRVC.      ПФ"Кубаньгазгеофизика"      : Service Company
DATE.      3.01.2004 г                 : Log Date
UWI .                                  : Unique Well ID
~Curve Information
DEPT.M                                 :
ПСст.мВ                                :
N11М31.12                              :
ПС31.12                                :
А2  .                                  :
ПСст.мВ                                :
ПСст.мВ                                :
ПСст.мВ                                :
ПСст.мВ                                :
ПСст.мВ                                :
ГК4 .                                  :
N11M3.                                 :
A2M3.                                  :
~Other information
  Забой,м: 2572
  КОЛОННА.   Диаметр,мм: 514; 304
  Башмак,м: 25; 1108
  Раствор (тип): глинистый
  Удельный вес, г/см3: 1.5
  Вязкость,с: 40
  УЭС р-ра,Омм 1.4  t=12град
  Эталонировки:
  ГК:1мкР/ч= 240 имп/мин
~ASCII Log Data
# ...
2447.4000 565.824   1.907 402.662   1.429 -999.250 -999.250 -999.250 -999.250 -999.250   6.986   1.714   1.448
2447.5000 566.084   1.930 402.585   1.482 -999.250 -999.250 -999.250 -999.250 -999.250   6.944   1.789   1.422
2447.6000 566.133   1.936 402.507   1.500 -999.250 -999.250 -999.250 -999.250 -999.250   6.874   1.855   1.404
2447.7000 566.250   1.913 402.459   1.556 -999.250 -999.250 -999.250 -999.250 -999.250   6.588   1.928   1.400
2447.8000 566.316   1.883 402.411   1.594 -999.250 -999.250 -999.250 -999.250 -999.250   6.447   1.986   1.406
2447.9000 566.494   1.846 402.435   1.623 -999.250 -999.250 -999.250 -999.250 -999.250   6.336   2.030   1.427
2448.0000 566.527   1.837 402.508   1.613 -999.250 -999.250 -999.250 -999.250 -999.250   6.430   2.040   1.459
2448.1000 566.546   1.826 402.720   1.629 -999.250 -999.250 -999.250 -999.250 -999.250   6.440   2.039   1.499
2448.2000 566.529   1.822 402.859   1.656 -999.250 -999.250 -999.250 -999.250 -999.250   6.895   2.029   1.542
2448.3000 566.382   1.842 403.128   1.642 -999.250 -999.250 -999.250 -999.250 -999.250   7.210   1.997   1.583
2448.4000 566.479   1.866 403.257   1.601 -999.250 -999.250 -999.250 -999.250 -999.250   7.417   1.965   1.623
2448.5000 566.578   1.946 403.543   1.542 -999.250 -999.250 -999.250 -999.250 -999.250   7.324   1.935   1.657
2448.6000 566.337   2.001 403.699   1.523 -999.250 -999.250 -999.250 -999.250 -999.250   7.213   1.951   1.683
2448.7000 566.200   2.072 403.826   1.507 -999.250 -999.250 -999.250 -999.250 -999.250   6.933   1.954   1.700
2448.8000 565.920   2.071 403.797   1.510 -999.250 -999.250 -999.250 -999.250 -999.250   6.830   1.983   1.705
2448.9000 565.935   2.069 403.512   1.502 -999.250 -999.250 -999.250 -999.250 -999.250   6.542   2.048   1.700
2449.0000 566.100   1.988 403.255   1.491 -999.250 -999.250 -999.250 -999.250 -999.250   6.179   2.112   1.687
2449.1000 566.198   1.923 402.789   1.495 -999.250 -999.250 -999.250 -999.250 -999.250   5.828   2.151   1.665
2449.2000 566.787   1.865 402.381   1.511 -999.250 -999.250 -999.250 -999.250 -999.250   5.649   2.176   1.636
2449.3000 566.726   1.872 401.973   1.556 -999.250 -999.250 -999.250 -999.250 -999.250   5.385   2.189   1.609
2449.4000 566.768   1.876 401.715   1.587 -999.250 -999.250 -999.250 -999.250 -999.250   5.243   2.155   1.589
2449.5000 566.816   1.874 401.656   1.647 -999.250 -999.250 -999.250 -999.250 -999.250   5.436   2.135   1.580
2449.6000 566.876   1.895 401.728   1.677 -999.250 -999.250 -999.250 -999.250 -999.250   6.024   2.113   1.586
2449.7000 566.558   1.919 401.859   1.729 -999.250 -999.250 -999.250 -999.250 -999.250   6.165   2.118   1.604
2449.8000 566.477   2.020 402.141   1.750 -999.250 -999.250 -999.250 -999.250 -999.250   6.687   2.086   1.632
2449.9000 566.261   2.096 402.293   1.761 -999.250 -999.250 -999.250 -999.250 -999.250   6.519   2.079   1.661
2450.0000 565.861   2.179 402.435   1.751 -999.250 -999.250 -999.250 -999.250 -999.250   6.426   2.071   1.693
2450.1000 565.724   2.185 402.424   1.741 -999.250 -999.250 -999.250 -999.250 -999.250   6.015   2.109   1.723
2450.2000 565.878   2.174 402.373   1.733 -999.250 -999.250 -999.250 -999.250 -999.250   5.836   2.148   1.749
2450.3000 566.234   2.157 402.332   1.724 -999.250 -999.250 -999.250 -999.250 -999.250   5.906   2.209   1.769
2450.4000 566.372   2.065 402.307   1.743 -999.250 -999.250 -999.250 -999.250 -999.250   5.392   2.262   1.787
2450.5000 566.231   1.990 402.324   1.771 -999.250 -999.250 -999.250 -999.250 -999.250   5.233   2.287   1.803
2450.6000 566.637   1.882 402.214   1.857 -999.250 -999.250 -999.250 -999.250 -999.250   5.259   2.300   1.815
2450.7000 566.768   1.850 402.088   1.915 -999.250 -999.250 -999.250 -999.250 -999.250   5.370   2.283   1.826
2450.8000 566.680   1.841 401.947   2.012 -999.250 -999.250 -999.250 -999.250 -999.250   5.763   2.261   1.840
2450.9000 566.512   1.865 401.933   2.052 -999.250 -999.250 -999.250 -999.250 -999.250   6.316   2.217   1.857
2451.0000 566.317   1.877 401.891   2.085 -999.250 -999.250 -999.250 -999.250 -999.250   7.051   2.136   1.886
2451.1000 566.386   1.865 401.862   2.078 -999.250 -999.250 -999.250 -999.250 -999.250   7.511   2.080   1.920
2451.2000 565.996   1.837 401.709   1.995 -999.250 -999.250 -999.250 -999.250 -999.250   8.074   2.052   1.957
2451.3000 565.891   1.822 401.585   1.919 -999.250 -999.250 -999.250 -999.250 -999.250   8.335   2.040   1.994
2451.4000 566.143   1.853 401.520   1.817 -999.250 -999.250 -999.250 -999.250 -999.250   8.589   2.000   2.022
2451.5000 566.473   1.899 401.579   1.792 -999.250 -999.250 -999.250 -999.250 -999.250   8.347   1.966   2.032
2451.6000 566.576   1.988 401.666   1.797 -999.250 -999.250 -999.250 -999.250 -999.250   8.469   1.954   2.023
2451.7000 566.260   2.031 401.693   1.896 -999.250 -999.250 -999.250 -999.250 -999.250   8.058   1.930   1.998
2451.8000 566.001   2.065 401.812   1.995 -999.250 -999.250 -999.250 -999.250 -999.250   7.963   1.932   1.965
2451.9000 566.091   2.056 401.904   2.071 -999.250 -999.250 -999.250 -999.250 -999.250   7.488   1.957   1.936
2452.0000 565.998   2.035 402.034   2.078 -999.250 -999.250 -999.250 -999.250 -999.250   7.075   1.987   1.918
2452.1000 565.956   2.023 402.073   2.141 -999.250 -999.250 -999.250 -999.250 -999.250   7.078   2.036   1.916
2452.2000 566.390   1.962 402.004   2.196 -999.250 -999.250 -999.250 -999.250 -999.250   6.574   2.080   1.928
2452.3000 566.720   1.914 401.896   2.321 -999.250 -999.250 -999.250 -999.250 -999.250   6.343   2.118   1.957
2452.4000 567.181   1.812 401.767   2.391 -999.250 -999.250 -999.250 -999.250 -999.250   6.337   2.146   2.000
2452.5000 567.431   1.760 401.746   2.468 -999.250 -999.250 -999.250 -999.250 -999.250   6.481   2.165   2.056
2452.6000 567.370   1.657 401.661   2.476 -999.250 -999.250 -999.250 -999.250 -999.250   6.455   2.158   2.122
2452.7000 566.969   1.608 401.596   2.472 -999.250 -999.250 -999.250 -999.250 -999.250   6.654   2.124   2.194
2452.8000 566.888   1.518 401.596   2.460 -999.250 -999.250 -999.250 -999.250 -999.250   7.103   2.067   2.264
2452.9000 566.943   1.479 401.661   2.393 -999.250 -999.250 -999.250 -999.250 -999.250   7.258   1.992   2.333
2453.0000 566.954   1.415 401.840   2.338 -999.250 -999.250 -999.250 -999.250 -999.250   7.742   1.903   2.392
2453.1000 566.982   1.390 401.953   2.193 -999.250 -999.250 -999.250 -999.250 -999.250   7.771   1.827   2.440
2453.2000 567.369   1.362 402.119   2.105 -999.250 -999.250 -999.250 -999.250 -999.250   8.005   1.745   2.470
2453.3000 567.261   1.359 402.172   1.879 -999.250 -999.250 -999.250 -999.250 -999.250   8.103   1.661   2.480
2453.4000 567.270   1.350 402.296   1.742 -999.250 -999.250 -999.250 -999.250 -999.250   8.308   1.593   2.463
2453.5000 567.078   1.345 402.369   1.516 -999.250 -999.250 -999.250 -999.250 -999.250   8.068   1.541   2.416
2453.6000 566.661   1.340 402.380   1.427 -999.250 -999.250 -999.250 -999.250 -999.250   8.018   1.526   2.341
2453.7000 566.366   1.359 402.318   1.257 -999.250 -999.250 -999.250 -999.250 -999.250   7.526   1.484   2.238
2453.8000 566.233   1.377 402.298   1.177 -999.250 -999.250 -999.250 -999.250 -999.250   7.312   1.453   2.115
2453.9000 566.429   1.418 402.339   1.067 -999.250 -999.250 -999.250 -999.250 -999.250   7.012   1.425   1.977
2454.0000 566.315   1.439 402.380   1.037 -999.250 -999.250 -999.250 -999.250 -999.250   6.948   1.406   1.827
2454.1000 566.227   1.460 402.424   1.023 -999.250 -999.250 -999.250 -999.250 -999.250   6.971   1.412   1.676
2454.2000 566.347   1.458 402.467   1.039 -999.250 -999.250 -999.250 -999.250 -999.250   6.843   1.424   1.530
2454.3000 566.242   1.463 402.412   1.085 -999.250 -999.250 -999.250 -999.250 -999.250   7.236   1.460   1.399
2454.4000 566.402   1.467 402.367   1.116 -999.250 -999.250 -999.250 -999.250 -999.250   6.922   1.514   1.287
2454.5000 566.909   1.502 402.322   1.235 -999.250 -999.250 -999.250 -999.250 -999.250   7.248   1.546   1.197
2454.6000 566.819   1.532 402.375   1.323 -999.250 -999.250 -999.250 -999.250 -999.250   7.576   1.551   1.131
