~Version Information
VERS.                     2.0 : CWLS Log ASCII Standart
WRAP.                     NO  : One line per depth step
~Well Information
STRT.M                      2020.3000  : Start Depth
STOP.M                      3250.0000  : Stop Depth
STEP.M                         0.1000  : Step
NULL.                         -999.25  : Null Value
COMP.      ООО"Кубаньгазпром"          : Company
WELL.      2р                          : Well
FLD .      Восточно-Прибрежная         : Field
LOC .                                  : Location
PROV.                                  : Province
SRVC.      ПФ"Кубаньгазгеофизика"      : Service Company
DATE.      3.01.2004 г                 : Log Date
UWI .                                  : Unique Well ID
~Curve Information
DEPT.M                                 :
ПСст.мВ                                :
N11М31.12                              :
ПС31.12                                :
А2  .                                  :
ПСст.мВ                                :
ПСст.мВ                                :
ПСст.мВ                                :
ПСст.мВ                                :
ПСст.мВ                                :
ГК4 .                                  :
N11M3.                                 :
A2M3.                                  :
~Other information
  Забой,м: 2572
  КОЛОННА.   Диаметр,мм: 514; 304
  Башмак,м: 25; 1108
  Раствор (тип): глинистый
  Удельный вес, г/см3: 1.5
  Вязкость,с: 40
  УЭС р-ра,Омм 1.4  t=12град
  Эталонировки:
  ГК:1мкР/ч= 240 имп/мин
~ASCII Log Data
# ...
2148.1000 573.946   1.249 434.029   0.953 -999.250 -999.250 -999.250 -999.250 -999.250   6.461   1.407 -999.250
2148.2000 574.534   1.240 435.453   0.966 -999.250 -999.250 -999.250 -999.250 -999.250   6.679   1.388 -999.250
2148.3000 574.539   1.232 436.310   0.963 -999.250 -999.250 -999.250 -999.250 -999.250   6.953   1.384 -999.250
2148.4000 574.388   1.226 438.091   0.946 -999.250 -999.250 -999.250 -999.250 -999.250   7.242   1.380 -999.250
2148.5000 573.504   1.219 439.015   0.924 -999.250 -999.250 -999.250 -999.250 -999.250   7.595   1.379 -999.250
2148.6000 573.235   1.213 440.535   0.919 -999.250 -999.250 -999.250 -999.250 -999.250   7.716   1.360 -999.250
2148.7000 574.353   1.205 441.131   0.907 -999.250 -999.250 -999.250 -999.250 -999.250   8.334   1.361 -999.250
2148.8000 575.402   1.204 442.225   0.901 -999.250 -999.250 -999.250 -999.250 -999.250   7.890   1.363   0.982
2148.9000 576.751   1.184 443.036   0.874 -999.250 -999.250 -999.250 -999.250 -999.250   7.986   1.368   1.039
2149.0000 578.246   1.166 443.846   0.854 -999.250 -999.250 -999.250 -999.250 -999.250   7.654   1.373   1.050
2149.1000 580.395   1.174 444.485   0.840 -999.250 -999.250 -999.250 -999.250 -999.250   7.186   1.358   1.054
2149.2000 582.521   1.199 444.811   0.848 -999.250 -999.250 -999.250 -999.250 -999.250   6.984   1.361   1.040
2149.3000 584.348   1.219 445.699   0.840 -999.250 -999.250 -999.250 -999.250 -999.250   6.960   1.364   1.018
2149.4000 585.745   1.215 446.261   0.825 -999.250 -999.250 -999.250 -999.250 -999.250   6.673   1.350   0.992
2149.5000 586.594   1.213 447.677   0.815 -999.250 -999.250 -999.250 -999.250 -999.250   6.822   1.355   0.965
2149.6000 587.817   1.214 448.531   0.820 -999.250 -999.250 -999.250 -999.250 -999.250   7.122   1.320   0.940
2149.7000 588.391   1.205 449.991   0.832 -999.250 -999.250 -999.250 -999.250 -999.250   7.156   1.307   0.919
2149.8000 588.302   1.193 450.598   0.838 -999.250 -999.250 -999.250 -999.250 -999.250   7.157   1.294   0.904
2149.9000 587.968   1.182 451.326   0.834 -999.250 -999.250 -999.250 -999.250 -999.250   7.305   1.287   0.893
2150.0000 588.383   1.143 451.449   0.823 -999.250 -999.250 -999.250 -999.250 -999.250   7.368   1.283   0.890
2150.1000 588.692   1.105 451.612   0.822 -999.250 -999.250 -999.250 -999.250 -999.250   7.287   1.282   0.895
2150.2000 589.561   1.087 451.653   0.832 -999.250 -999.250 -999.250 -999.250 -999.250   7.423   1.262   0.902
2150.3000 590.471   1.108 451.694   0.837 -999.250 -999.250 -999.250 -999.250 -999.250   7.377   1.263   0.909
2150.4000 591.566   1.137 451.447   0.832 -999.250 -999.250 -999.250 -999.250 -999.250   7.072   1.244   0.918
2150.5000 593.350   1.146 451.200   0.807 -999.250 -999.250 -999.250 -999.250 -999.250   6.833   1.249   0.924
2150.6000 593.842   1.162 450.759   0.786 -999.250 -999.250 -999.250 -999.250 -999.250   6.653   1.254   0.923
2150.7000 594.609   1.168 450.564   0.762 -999.250 -999.250 -999.250 -999.250 -999.250   6.209   1.263   0.914
2150.8000 594.649   1.196 449.922   0.759 -999.250 -999.250 -999.250 -999.250 -999.250   6.242   1.270   0.903
2150.9000 594.097   1.217 449.474   0.749 -999.250 -999.250 -999.250 -999.250 -999.250   6.507   1.257   0.888
2151.0000 593.391   1.221 448.054   0.743 -999.250 -999.250 -999.250 -999.250 -999.250   6.771   1.282   0.871
2151.1000 593.295   1.204 447.082   0.730 -999.250 -999.250 -999.250 -999.250 -999.250   6.862   1.305   0.853
2151.2000 592.692   1.197 444.969   0.724 -999.250 -999.250 -999.250 -999.250 -999.250   6.670   1.311   0.836
2151.3000 592.353   1.208 443.829   0.727 -999.250 -999.250 -999.250 -999.250 -999.250   6.640   1.312   0.822
2151.4000 592.281   1.218 441.551   0.752 -999.250 -999.250 -999.250 -999.250 -999.250   6.808   1.308   0.810
2151.5000 592.205   1.217 440.413   0.776 -999.250 -999.250 -999.250 -999.250 -999.250   6.480   1.304   0.805
2151.6000 591.211   1.209 438.416   0.784 -999.250 -999.250 -999.250 -999.250 -999.250   6.398   1.318   0.806
2151.7000 590.354   1.202 437.555   0.777 -999.250 -999.250 -999.250 -999.250 -999.250   6.106   1.295   0.814
2151.8000 589.513   1.193 435.819   0.752 -999.250 -999.250 -999.250 -999.250 -999.250   5.908   1.291   0.826
2151.9000 588.130   1.192 434.943   0.733 -999.250 -999.250 -999.250 -999.250 -999.250   5.762   1.285   0.841
2152.0000 585.932   1.177 432.641   0.734 -999.250 -999.250 -999.250 -999.250 -999.250   5.920   1.283   0.855
2152.1000 584.519   1.164 431.215   0.754 -999.250 -999.250 -999.250 -999.250 -999.250   6.566   1.263   0.864
2152.2000 582.272   1.152 428.050   0.768 -999.250 -999.250 -999.250 -999.250 -999.250   6.882   1.263   0.871
2152.3000 580.958   1.154 426.310   0.761 -999.250 -999.250 -999.250 -999.250 -999.250   7.067   1.245   0.872
2152.4000 579.063   1.139 422.791   0.741 -999.250 -999.250 -999.250 -999.250 -999.250   7.195   1.249   0.867
2152.5000 578.482   1.123 421.012   0.727 -999.250 -999.250 -999.250 -999.250 -999.250   7.405   1.234   0.861
2152.6000 576.682   1.077 417.721   0.720 -999.250 -999.250 -999.250 -999.250 -999.250   7.714   1.243   0.850
2152.7000 575.262   1.047 416.209   0.728 -999.250 -999.250 -999.250 -999.250 -999.250   7.735   1.231   0.833
2152.8000 572.971   1.016 413.742   0.735 -999.250 -999.250 -999.250 -999.250 -999.250   7.985   1.222   0.811
2152.9000 571.163   1.039 412.787   0.720 -999.250 -999.250 -999.250 -999.250 -999.250   8.317   1.211   0.787
2153.0000 568.900   1.062 411.217   0.705 -999.250 -999.250 -999.250 -999.250 -999.250   8.581   1.183   0.763
2153.1000 566.354   1.109 410.175   0.720 -999.250 -999.250 -999.250 -999.250 -999.250   8.554   1.156   0.745
2153.2000 564.047   1.133 409.133   0.749 -999.250 -999.250 -999.250 -999.250 -999.250   8.396   1.152   0.730
2153.3000 561.575   1.120 408.701   0.771 -999.250 -999.250 -999.250 -999.250 -999.250   8.401   1.153   0.723
2153.4000 560.353   1.082 408.695   0.763 -999.250 -999.250 -999.250 -999.250 -999.250   8.213   1.179   0.723
2153.5000 558.975   1.045 408.920   0.724 -999.250 -999.250 -999.250 -999.250 -999.250   8.300   1.187   0.733
2153.6000 557.969   1.046 409.150   0.692 -999.250 -999.250 -999.250 -999.250 -999.250   8.560   1.194   0.747
2153.7000 557.577   1.070 409.632   0.692 -999.250 -999.250 -999.250 -999.250 -999.250   8.617   1.196   0.759
2153.8000 556.966   1.094 409.883   0.724 -999.250 -999.250 -999.250 -999.250 -999.250   8.933   1.196   0.770
2153.9000 556.311   1.136 410.656   0.770 -999.250 -999.250 -999.250 -999.250 -999.250   8.724   1.176   0.778
2154.0000 556.228   1.155 411.177   0.784 -999.250 -999.250 -999.250 -999.250 -999.250   8.672   1.154   0.783
2154.1000 556.513   1.203 411.980   0.839 -999.250 -999.250 -999.250 -999.250 -999.250   8.591   1.133   0.787
2154.2000 557.176   1.233 412.261   0.879 -999.250 -999.250 -999.250 -999.250 -999.250   8.289   1.136   0.798
2154.3000 557.732   1.279 412.688   0.915 -999.250 -999.250 -999.250 -999.250 -999.250   8.061   1.162   0.812
2154.4000 557.985   1.295 412.834   0.910 -999.250 -999.250 -999.250 -999.250 -999.250   7.916   1.193   0.833
2154.5000 557.858   1.302 413.376   0.856 -999.250 -999.250 -999.250 -999.250 -999.250   7.371   1.243   0.854
2154.6000 557.743   1.293 413.772   0.808 -999.250 -999.250 -999.250 -999.250 -999.250   7.207   1.288   0.874
2154.7000 557.825   1.288 414.712   0.753 -999.250 -999.250 -999.250 -999.250 -999.250   6.956   1.326   0.886
2154.8000 557.808   1.291 415.256   0.747 -999.250 -999.250 -999.250 -999.250 -999.250   6.705   1.355   0.889
2154.9000 557.938   1.293 416.865   0.734 -999.250 -999.250 -999.250 -999.250 -999.250   6.526   1.375   0.880
2155.0000 557.805   1.291 417.930   0.728 -999.250 -999.250 -999.250 -999.250 -999.250   6.367   1.367   0.864
2155.1000 557.922   1.297 420.852   0.734 -999.250 -999.250 -999.250 -999.250 -999.250   6.427   1.373   0.845
2155.2000 558.383   1.304 422.710   0.746 -999.250 -999.250 -999.250 -999.250 -999.250   6.361   1.375   0.826
2155.3000 558.623   1.317 427.181   0.777 -999.250 -999.250 -999.250 -999.250 -999.250   6.266   1.359   0.806
