~Version Information
VERS.                     2.0 : CWLS Log ASCII Standart
WRAP.                     NO  : One line per depth step
~Well Information
STRT.M                      2020.3000  : Start Depth
STOP.M                      3250.0000  : Stop Depth
STEP.M                         0.1000  : Step
NULL.                         -999.25  : Null Value
COMP.      ООО"Кубаньгазпром"          : Company
WELL.      2р                          : Well
FLD .      Восточно-Прибрежная         : Field
LOC .                                  : Location
PROV.                                  : Province
SRVC.      ПФ"Кубаньгазгеофизика"      : Service Company
DATE.      3.01.2004 г                 : Log Date
UWI .                                  : Unique Well ID
~Curve Information
DEPT.M                                 :
ПСст.мВ                                :
N11М31.12                              :
ПС31.12                                :
А2  .                                  :
ПСст.мВ                                :
ПСст.мВ                                :
ПСст.мВ                                :
ПСст.мВ                                :
ПСст.мВ                                :
ГК4 .                                  :
N11M3.                                 :
A2M3.                                  :
~Other information
  Забой,м: 2572
  КОЛОННА.   Диаметр,мм: 514; 304
  Башмак,м: 25; 1108
  Раствор (тип): глинистый
  Удельный вес, г/см3: 1.5
  Вязкость,с: 40
  УЭС р-ра,Омм 1.4  t=12град
  Эталонировки:
  ГК:1мкР/ч= 240 имп/мин
~ASCII Log Data
# ...
2352.5000 560.865   0.978 400.339   0.904 -999.250 -999.250 -999.250 -999.250 -999.250   7.575   1.218   0.960
2352.6000 560.820   0.979 400.373   0.940 -999.250 -999.250 -999.250 -999.250 -999.250   7.769   1.230   0.972
2352.7000 560.765   0.989 400.316   0.978 -999.250 -999.250 -999.250 -999.250 -999.250   7.622   1.204   0.986
2352.8000 560.764   1.001 400.430   0.980 -999.250 -999.250 -999.250 -999.250 -999.250   7.708   1.198   0.998
2352.9000 561.018   1.001 400.600   0.971 -999.250 -999.250 -999.250 -999.250 -999.250   7.436   1.170   1.006
2353.0000 561.284   1.012 400.881   0.959 -999.250 -999.250 -999.250 -999.250 -999.250   7.375   1.127   1.011
2353.1000 561.303   1.023 400.992   0.957 -999.250 -999.250 -999.250 -999.250 -999.250   7.479   1.126   1.013
2353.2000 560.531   1.049 401.113   0.965 -999.250 -999.250 -999.250 -999.250 -999.250   7.823   1.129   1.015
2353.3000 560.693   1.064 401.122   0.981 -999.250 -999.250 -999.250 -999.250 -999.250   8.232   1.122   1.024
2353.4000 560.851   1.079 401.287   0.988 -999.250 -999.250 -999.250 -999.250 -999.250   8.361   1.115   1.033
2353.5000 560.917   1.081 401.442   0.984 -999.250 -999.250 -999.250 -999.250 -999.250   8.297   1.127   1.039
2353.6000 560.950   1.083 401.704   0.974 -999.250 -999.250 -999.250 -999.250 -999.250   8.117   1.120   1.045
2353.7000 561.075   1.091 401.811   0.949 -999.250 -999.250 -999.250 -999.250 -999.250   8.172   1.115   1.047
2353.8000 561.433   1.097 401.918   0.933 -999.250 -999.250 -999.250 -999.250 -999.250   8.406   1.128   1.045
2353.9000 561.539   1.120 402.090   0.926 -999.250 -999.250 -999.250 -999.250 -999.250   8.168   1.122   1.040
2354.0000 561.619   1.137 402.263   0.934 -999.250 -999.250 -999.250 -999.250 -999.250   8.002   1.136   1.032
2354.1000 561.628   1.171 402.585   0.952 -999.250 -999.250 -999.250 -999.250 -999.250   7.510   1.149   1.027
2354.2000 561.492   1.188 402.736   0.962 -999.250 -999.250 -999.250 -999.250 -999.250   7.762   1.162   1.022
2354.3000 561.463   1.206 403.013   0.972 -999.250 -999.250 -999.250 -999.250 -999.250   7.905   1.173   1.017
2354.4000 561.556   1.207 403.140   0.973 -999.250 -999.250 -999.250 -999.250 -999.250   8.025   1.200   1.009
2354.5000 561.800   1.225 403.291   0.973 -999.250 -999.250 -999.250 -999.250 -999.250   8.057   1.225   1.005
2354.6000 562.173   1.243 403.315   0.948 -999.250 -999.250 -999.250 -999.250 -999.250   7.992   1.248   1.001
2354.7000 562.650   1.259 403.231   0.944 -999.250 -999.250 -999.250 -999.250 -999.250   8.216   1.265   0.998
2354.8000 562.832   1.257 403.123   0.940 -999.250 -999.250 -999.250 -999.250 -999.250   8.003   1.278   0.997
2354.9000 563.063   1.225 403.002   0.963 -999.250 -999.250 -999.250 -999.250 -999.250   7.942   1.266   0.995
2355.0000 563.198   1.196 402.989   0.964 -999.250 -999.250 -999.250 -999.250 -999.250   7.733   1.270   0.998
2355.1000 563.421   1.183 402.831   0.943 -999.250 -999.250 -999.250 -999.250 -999.250   7.734   1.253   1.001
2355.2000 563.227   1.198 402.686   0.921 -999.250 -999.250 -999.250 -999.250 -999.250   7.624   1.237   1.005
2355.3000 563.375   1.183 402.433   0.888 -999.250 -999.250 -999.250 -999.250 -999.250   7.628   1.240   1.006
2355.4000 562.987   1.153 402.326   0.877 -999.250 -999.250 -999.250 -999.250 -999.250   7.943   1.228   1.011
2355.5000 562.883   1.120 402.281   0.886 -999.250 -999.250 -999.250 -999.250 -999.250   8.216   1.238   1.013
2355.6000 562.380   1.117 402.343   0.907 -999.250 -999.250 -999.250 -999.250 -999.250   8.378   1.227   1.015
2355.7000 562.201   1.118 402.432   0.936 -999.250 -999.250 -999.250 -999.250 -999.250   8.631   1.220   1.011
2355.8000 562.043   1.121 402.459   0.945 -999.250 -999.250 -999.250 -999.250 -999.250   8.636   1.210   1.001
2355.9000 561.986   1.113 402.375   0.949 -999.250 -999.250 -999.250 -999.250 -999.250   8.193   1.202   0.990
2356.0000 561.841   1.101 402.264   0.944 -999.250 -999.250 -999.250 -999.250 -999.250   7.700   1.196   0.979
2356.1000 561.727   1.089 402.084   0.950 -999.250 -999.250 -999.250 -999.250 -999.250   7.451   1.172   0.968
2356.2000 561.996   1.088 402.014   0.960 -999.250 -999.250 -999.250 -999.250 -999.250   7.707   1.169   0.961
2356.3000 562.293   1.064 401.788   0.971 -999.250 -999.250 -999.250 -999.250 -999.250   7.762   1.168   0.956
2356.4000 562.736   1.041 401.631   0.969 -999.250 -999.250 -999.250 -999.250 -999.250   7.849   1.171   0.956
2356.5000 563.249   1.032 401.441   0.968 -999.250 -999.250 -999.250 -999.250 -999.250   7.868   1.175   0.955
2356.6000 563.456   1.047 401.408   0.957 -999.250 -999.250 -999.250 -999.250 -999.250   7.744   1.180   0.956
2356.7000 563.327   1.080 401.563   0.947 -999.250 -999.250 -999.250 -999.250 -999.250   7.567   1.183   0.954
2356.8000 563.219   1.099 401.751   0.949 -999.250 -999.250 -999.250 -999.250 -999.250   7.507   1.186   0.950
2356.9000 562.947   1.126 402.194   0.959 -999.250 -999.250 -999.250 -999.250 -999.250   7.706   1.168   0.947
2357.0000 562.453   1.135 402.449   0.978 -999.250 -999.250 -999.250 -999.250 -999.250   7.761   1.169   0.950
2357.1000 562.228   1.164 402.895   0.986 -999.250 -999.250 -999.250 -999.250 -999.250   7.777   1.150   0.956
2357.2000 561.810   1.185 403.087   0.990 -999.250 -999.250 -999.250 -999.250 -999.250   7.928   1.154   0.968
2357.3000 562.108   1.210 403.353   0.987 -999.250 -999.250 -999.250 -999.250 -999.250   7.937   1.158   0.981
2357.4000 562.328   1.214 403.427   1.002 -999.250 -999.250 -999.250 -999.250 -999.250   7.768   1.146   0.997
2357.5000 562.878   1.218 403.560   1.020 -999.250 -999.250 -999.250 -999.250 -999.250   7.811   1.153   1.010
2357.6000 563.368   1.222 403.618   1.045 -999.250 -999.250 -999.250 -999.250 -999.250   7.859   1.159   1.020
2357.7000 563.198   1.226 403.554   1.053 -999.250 -999.250 -999.250 -999.250 -999.250   7.941   1.168   1.028
2357.8000 563.411   1.231 403.430   1.052 -999.250 -999.250 -999.250 -999.250 -999.250   8.117   1.175   1.036
2357.9000 563.033   1.218 403.307   1.045 -999.250 -999.250 -999.250 -999.250 -999.250   8.236   1.181   1.040
2358.0000 562.812   1.205 403.254   1.062 -999.250 -999.250 -999.250 -999.250 -999.250   8.051   1.205   1.046
2358.1000 562.918   1.191 403.201   1.086 -999.250 -999.250 -999.250 -999.250 -999.250   8.369   1.208   1.054
2358.2000 562.360   1.194 403.023   1.082 -999.250 -999.250 -999.250 -999.250 -999.250   8.072   1.229   1.064
2358.3000 562.216   1.197 402.714   1.055 -999.250 -999.250 -999.250 -999.250 -999.250   8.091   1.245   1.075
2358.4000 562.175   1.210 402.406   1.008 -999.250 -999.250 -999.250 -999.250 -999.250   7.955   1.261   1.084
2358.5000 562.368   1.220 402.222   0.988 -999.250 -999.250 -999.250 -999.250 -999.250   7.998   1.273   1.087
2358.6000 562.467   1.230 402.174   0.965 -999.250 -999.250 -999.250 -999.250 -999.250   7.991   1.262   1.084
2358.7000 562.327   1.229 402.126   0.962 -999.250 -999.250 -999.250 -999.250 -999.250   7.948   1.247   1.078
2358.8000 562.396   1.238 402.022   0.948 -999.250 -999.250 -999.250 -999.250 -999.250   8.144   1.250   1.068
2358.9000 562.691   1.246 401.966   0.937 -999.250 -999.250 -999.250 -999.250 -999.250   8.173   1.235   1.061
2359.0000 562.521   1.272 401.762   0.940 -999.250 -999.250 -999.250 -999.250 -999.250   8.195   1.243   1.052
2359.1000 562.707   1.289 401.614   0.955 -999.250 -999.250 -999.250 -999.250 -999.250   8.128   1.271   1.042
2359.2000 563.081   1.294 401.412   0.958 -999.250 -999.250 -999.250 -999.250 -999.250   8.346   1.281   1.032
2359.3000 564.229   1.282 401.358   0.947 -999.250 -999.250 -999.250 -999.250 -999.250   8.645   1.309   1.023
2359.4000 564.599   1.271 401.337   0.953 -999.250 -999.250 -999.250 -999.250 -999.250   8.671   1.333   1.014
2359.5000 564.525   1.271 401.370   0.970 -999.250 -999.250 -999.250 -999.250 -999.250   8.858   1.354   1.010
2359.6000 564.715   1.285 401.294   0.999 -999.250 -999.250 -999.250 -999.250 -999.250   8.785   1.369   1.011
2359.7000 564.460   1.299 401.185   1.011 -999.250 -999.250 -999.250 -999.250 -999.250   8.915   1.380   1.014
