~Version Information
VERS.                     2.0 : CWLS Log ASCII Standart
WRAP.                     NO  : One line per depth step
~Well Information
STRT.M                      2020.3000  : Start Depth
STOP.M                      3250.0000  : Stop Depth
STEP.M                         0.1000  : Step
NULL.                         -999.25  : Null Value
COMP.      ООО"Кубаньгазпром"          : Company
WELL.      2р                          : Well
FLD .      Восточно-Прибрежная         : Field
LOC .                                  : Location
PROV.                                  : Province
SRVC.      ПФ"Кубаньгазгеофизика"      : Service Company
DATE.      3.01.2004 г                 : Log Date
UWI .                                  : Unique Well ID
~Curve Information
DEPT.M                                 :
ПСст.мВ                                :
N11М31.12                              :
ПС31.12                                :
А2  .                                  :
ПСст.мВ                                :
ПСст.мВ                                :
ПСст.мВ                                :
ПСст.мВ                                :
ПСст.мВ                                :
ГК4 .                                  :
N11M3.                                 :
A2M3.                                  :
~Other information
  Забой,м: 2572
  КОЛОННА.   Диаметр,мм: 514; 304
  Башмак,м: 25; 1108
  Раствор (тип): глинистый
  Удельный вес, г/см3: 1.5
  Вязкость,с: 40
  УЭС р-ра,Омм 1.4  t=12град
  Эталонировки:
  ГК:1мкР/ч= 240 имп/мин
~ASCII Log Data
# ...
2425.5000 564.826   1.585 400.602   1.330 -999.250 -999.250 -999.250 -999.250 -999.250   8.224   1.764   1.236
2425.6000 565.186   1.582 400.682   1.352 -999.250 -999.250 -999.250 -999.250 -999.250   8.188   1.745   1.267
2425.7000 565.161   1.594 400.792   1.382 -999.250 -999.250 -999.250 -999.250 -999.250   8.145   1.726   1.296
2425.8000 565.231   1.615 400.835   1.390 -999.250 -999.250 -999.250 -999.250 -999.250   8.029   1.710   1.330
2425.9000 565.106   1.624 400.768   1.412 -999.250 -999.250 -999.250 -999.250 -999.250   7.777   1.697   1.360
2426.0000 565.109   1.604 400.581   1.427 -999.250 -999.250 -999.250 -999.250 -999.250   7.495   1.708   1.386
2426.1000 565.098   1.574 400.461   1.444 -999.250 -999.250 -999.250 -999.250 -999.250   7.643   1.703   1.404
2426.2000 565.482   1.563 400.338   1.445 -999.250 -999.250 -999.250 -999.250 -999.250   7.924   1.720   1.419
2426.3000 565.496   1.583 400.333   1.458 -999.250 -999.250 -999.250 -999.250 -999.250   8.125   1.715   1.431
2426.4000 565.882   1.598 400.135   1.471 -999.250 -999.250 -999.250 -999.250 -999.250   8.618   1.730   1.442
2426.5000 565.697   1.594 399.940   1.469 -999.250 -999.250 -999.250 -999.250 -999.250   8.240   1.762   1.448
2426.6000 565.510   1.587 399.718   1.454 -999.250 -999.250 -999.250 -999.250 -999.250   8.179   1.756   1.453
2426.7000 565.616   1.584 399.690   1.456 -999.250 -999.250 -999.250 -999.250 -999.250   8.014   1.766   1.461
2426.8000 565.759   1.580 399.652   1.472 -999.250 -999.250 -999.250 -999.250 -999.250   8.113   1.770   1.470
2426.9000 565.692   1.584 399.643   1.495 -999.250 -999.250 -999.250 -999.250 -999.250   8.459   1.775   1.478
2427.0000 565.728   1.588 399.516   1.501 -999.250 -999.250 -999.250 -999.250 -999.250   8.590   1.778   1.485
2427.1000 565.735   1.583 399.399   1.533 -999.250 -999.250 -999.250 -999.250 -999.250   8.666   1.780   1.490
2427.2000 565.755   1.574 399.282   1.559 -999.250 -999.250 -999.250 -999.250 -999.250   8.754   1.781   1.493
2427.3000 565.645   1.553 399.404   1.603 -999.250 -999.250 -999.250 -999.250 -999.250   8.671   1.782   1.498
2427.4000 565.410   1.542 399.526   1.621 -999.250 -999.250 -999.250 -999.250 -999.250   8.800   1.782   1.505
2427.5000 565.418   1.529 399.762   1.672 -999.250 -999.250 -999.250 -999.250 -999.250   8.639   1.802   1.520
2427.6000 565.324   1.529 399.877   1.705 -999.250 -999.250 -999.250 -999.250 -999.250   9.081   1.802   1.541
2427.7000 565.524   1.519 400.095   1.770 -999.250 -999.250 -999.250 -999.250 -999.250   9.061   1.821   1.566
2427.8000 565.723   1.509 400.198   1.803 -999.250 -999.250 -999.250 -999.250 -999.250   9.318   1.817   1.598
2427.9000 565.940   1.519 400.438   1.795 -999.250 -999.250 -999.250 -999.250 -999.250   9.307   1.793   1.632
2428.0000 565.748   1.538 400.576   1.755 -999.250 -999.250 -999.250 -999.250 -999.250   9.440   1.785   1.672
2428.1000 565.515   1.545 400.667   1.679 -999.250 -999.250 -999.250 -999.250 -999.250   9.162   1.778   1.718
2428.2000 565.115   1.533 400.621   1.643 -999.250 -999.250 -999.250 -999.250 -999.250   8.939   1.756   1.763
2428.3000 565.371   1.521 400.548   1.560 -999.250 -999.250 -999.250 -999.250 -999.250   8.713   1.755   1.800
2428.4000 565.797   1.539 400.521   1.512 -999.250 -999.250 -999.250 -999.250 -999.250   8.793   1.736   1.822
2428.5000 565.933   1.558 400.336   1.475 -999.250 -999.250 -999.250 -999.250 -999.250   8.283   1.722   1.827
2428.6000 566.264   1.571 400.177   1.487 -999.250 -999.250 -999.250 -999.250 -999.250   8.389   1.707   1.813
2428.7000 566.140   1.565 399.871   1.516 -999.250 -999.250 -999.250 -999.250 -999.250   8.470   1.696   1.786
2428.8000 565.989   1.571 399.603   1.533 -999.250 -999.250 -999.250 -999.250 -999.250   8.460   1.689   1.749
2428.9000 565.771   1.582 399.335   1.507 -999.250 -999.250 -999.250 -999.250 -999.250   8.317   1.684   1.714
2429.0000 565.702   1.592 399.166   1.464 -999.250 -999.250 -999.250 -999.250 -999.250   8.135   1.681   1.683
2429.1000 565.293   1.576 399.118   1.392 -999.250 -999.250 -999.250 -999.250 -999.250   8.080   1.680   1.658
2429.2000 565.174   1.559 399.126   1.364 -999.250 -999.250 -999.250 -999.250 -999.250   7.871   1.719   1.642
2429.3000 565.193   1.560 399.182   1.342 -999.250 -999.250 -999.250 -999.250 -999.250   8.387   1.739   1.633
2429.4000 564.922   1.579 399.239   1.350 -999.250 -999.250 -999.250 -999.250 -999.250   8.386   1.759   1.622
2429.5000 564.923   1.576 399.253   1.364 -999.250 -999.250 -999.250 -999.250 -999.250   8.449   1.752   1.609
2429.6000 564.797   1.554 399.267   1.371 -999.250 -999.250 -999.250 -999.250 -999.250   8.131   1.741   1.591
2429.7000 564.354   1.500 399.171   1.377 -999.250 -999.250 -999.250 -999.250 -999.250   8.312   1.745   1.570
2429.8000 564.281   1.467 399.061   1.388 -999.250 -999.250 -999.250 -999.250 -999.250   8.292   1.751   1.549
2429.9000 564.358   1.463 398.732   1.398 -999.250 -999.250 -999.250 -999.250 -999.250   8.592   1.739   1.530
2430.0000 564.275   1.491 398.514   1.426 -999.250 -999.250 -999.250 -999.250 -999.250   8.810   1.727   1.517
2430.1000 564.454   1.497 398.184   1.443 -999.250 -999.250 -999.250 -999.250 -999.250   8.856   1.713   1.509
2430.2000 564.495   1.474 398.073   1.437 -999.250 -999.250 -999.250 -999.250 -999.250   8.447   1.702   1.508
2430.3000 564.922   1.474 398.009   1.414 -999.250 -999.250 -999.250 -999.250 -999.250   8.248   1.693   1.513
2430.4000 564.820   1.497 398.056   1.346 -999.250 -999.250 -999.250 -999.250 -999.250   7.819   1.707   1.523
2430.5000 564.956   1.545 398.389   1.301 -999.250 -999.250 -999.250 -999.250 -999.250   7.761   1.703   1.533
2430.6000 565.007   1.569 398.675   1.243 -999.250 -999.250 -999.250 -999.250 -999.250   7.524   1.721   1.538
2430.7000 565.202   1.646 399.207   1.230 -999.250 -999.250 -999.250 -999.250 -999.250   7.850   1.716   1.536
2430.8000 565.123   1.698 399.453   1.258 -999.250 -999.250 -999.250 -999.250 -999.250   7.453   1.712   1.527
2430.9000 565.280   1.768 399.854   1.298 -999.250 -999.250 -999.250 -999.250 -999.250   7.356   1.724   1.509
2431.0000 565.275   1.787 400.010   1.363 -999.250 -999.250 -999.250 -999.250 -999.250   7.352   1.757   1.486
2431.1000 565.286   1.825 400.194   1.388 -999.250 -999.250 -999.250 -999.250 -999.250   7.351   1.790   1.462
2431.2000 565.265   1.844 400.222   1.405 -999.250 -999.250 -999.250 -999.250 -999.250   7.470   1.822   1.442
2431.3000 565.369   1.888 400.060   1.374 -999.250 -999.250 -999.250 -999.250 -999.250   7.547   1.866   1.430
2431.4000 565.717   1.914 399.870   1.343 -999.250 -999.250 -999.250 -999.250 -999.250   7.682   1.904   1.425
2431.5000 565.700   2.053 399.601   1.311 -999.250 -999.250 -999.250 -999.250 -999.250   7.961   1.955   1.428
2431.6000 566.031   2.167 399.522   1.304 -999.250 -999.250 -999.250 -999.250 -999.250   8.081   1.997   1.435
2431.7000 566.170   2.396 399.077   1.328 -999.250 -999.250 -999.250 -999.250 -999.250   7.913   2.052   1.445
2431.8000 565.942   2.511 398.712   1.360 -999.250 -999.250 -999.250 -999.250 -999.250   8.117   2.096   1.453
2431.9000 565.648   2.628 398.109   1.391 -999.250 -999.250 -999.250 -999.250 -999.250   8.554   2.172   1.460
2432.0000 565.326   2.629 397.871   1.419 -999.250 -999.250 -999.250 -999.250 -999.250   8.730   2.256   1.464
2432.1000 564.926   2.639 397.590   1.446 -999.250 -999.250 -999.250 -999.250 -999.250   8.675   2.371   1.468
2432.2000 564.585   2.648 397.548   1.626 -999.250 -999.250 -999.250 -999.250 -999.250   8.345   2.510   1.474
2432.3000 564.308   2.562 397.398   1.777 -999.250 -999.250 -999.250 -999.250 -999.250   8.067   2.632   1.484
2432.4000 564.112   2.467 397.291   2.152 -999.250 -999.250 -999.250 -999.250 -999.250   7.287   2.732   1.507
2432.5000 564.477   2.258 397.407   2.375 -999.250 -999.250 -999.250 -999.250 -999.250   6.308   2.803   1.551
2432.6000 564.404   2.144 397.631   2.670 -999.250 -999.250 -999.250 -999.250 -999.250   5.303   2.870   1.626
2432.7000 564.740   1.966 397.980   2.741 -999.250 -999.250 -999.250 -999.250 -999.250   4.836   2.937   1.743
