~Version Information
VERS.                     2.0 : CWLS Log ASCII Standart
WRAP.                     NO  : One line per depth step
~Well Information
STRT.M                      2020.3000  : Start Depth
STOP.M                      3250.0000  : Stop Depth
STEP.M                         0.1000  : Step
NULL.                         -999.25  : Null Value
COMP.      ООО"Кубаньгазпром"          : Company
WELL.      2р                          : Well
FLD .      Восточно-Прибрежная         : Field
LOC .                                  : Location
PROV.                                  : Province
SRVC.      ПФ"Кубаньгазгеофизика"      : Service Company
DATE.      3.01.2004 г                 : Log Date
UWI .                                  : Unique Well ID
~Curve Information
DEPT.M                                 :
ПСст.мВ                                :
N11М31.12                              :
ПС31.12                                :
А2  .                                  :
ПСст.мВ                                :
ПСст.мВ                                :
ПСст.мВ                                :
ПСст.мВ                                :
ПСст.мВ                                :
ГК4 .                                  :
N11M3.                                 :
A2M3.                                  :
~Other information
  Забой,м: 2572
  КОЛОННА.   Диаметр,мм: 514; 304
  Башмак,м: 25; 1108
  Раствор (тип): глинистый
  Удельный вес, г/см3: 1.5
  Вязкость,с: 40
  УЭС р-ра,Омм 1.4  t=12град
  Эталонировки:
  ГК:1мкР/ч= 240 имп/мин
~ASCII Log Data
# ...
2264.9000 559.240   1.538 402.594   1.405 -999.250 -999.250 -999.250 -999.250 -999.250   7.337   1.773   1.651
2265.0000 559.227   1.514 402.660   1.417 -999.250 -999.250 -999.250 -999.250 -999.250   7.613   1.734   1.562
2265.1000 559.357   1.491 402.766   1.377 -999.250 -999.250 -999.250 -999.250 -999.250   7.742   1.685   1.490
2265.2000 558.818   1.521 402.872   1.338 -999.250 -999.250 -999.250 -999.250 -999.250   7.579   1.647   1.436
2265.3000 558.527   1.545 402.869   1.355 -999.250 -999.250 -999.250 -999.250 -999.250   7.267   1.617   1.395
2265.4000 557.964   1.519 402.883   1.412 -999.250 -999.250 -999.250 -999.250 -999.250   7.285   1.577   1.364
2265.5000 557.879   1.470 402.897   1.496 -999.250 -999.250 -999.250 -999.250 -999.250   7.300   1.564   1.348
2265.6000 557.852   1.420 402.749   1.523 -999.250 -999.250 -999.250 -999.250 -999.250   7.758   1.578   1.349
2265.7000 557.444   1.416 402.585   1.567 -999.250 -999.250 -999.250 -999.250 -999.250   7.184   1.599   1.367
2265.8000 557.670   1.411 402.172   1.583 -999.250 -999.250 -999.250 -999.250 -999.250   7.285   1.603   1.392
2265.9000 558.025   1.402 401.923   1.671 -999.250 -999.250 -999.250 -999.250 -999.250   7.435   1.584   1.429
2266.0000 558.585   1.398 401.674   1.741 -999.250 -999.250 -999.250 -999.250 -999.250   7.701   1.561   1.472
2266.1000 559.346   1.370 401.584   1.832 -999.250 -999.250 -999.250 -999.250 -999.250   7.396   1.538   1.525
2266.2000 559.543   1.346 401.494   1.851 -999.250 -999.250 -999.250 -999.250 -999.250   6.927   1.538   1.585
2266.3000 559.504   1.322 401.357   1.738 -999.250 -999.250 -999.250 -999.250 -999.250   6.373   1.523   1.653
2266.4000 559.684   1.322 401.309   1.605 -999.250 -999.250 -999.250 -999.250 -999.250   6.190   1.492   1.723
2266.5000 560.194   1.287 401.301   1.397 -999.250 -999.250 -999.250 -999.250 -999.250   5.974   1.482   1.782
2266.6000 559.971   1.253 401.341   1.321 -999.250 -999.250 -999.250 -999.250 -999.250   5.961   1.454   1.819
2266.7000 559.343   1.218 401.494   1.213 -999.250 -999.250 -999.250 -999.250 -999.250   6.734   1.433   1.823
2266.8000 558.983   1.217 401.607   1.181 -999.250 -999.250 -999.250 -999.250 -999.250   6.954   1.414   1.795
2266.9000 558.667   1.215 401.803   1.196 -999.250 -999.250 -999.250 -999.250 -999.250   7.375   1.400   1.737
2267.0000 558.477   1.282 401.885   1.243 -999.250 -999.250 -999.250 -999.250 -999.250   7.800   1.411   1.657
2267.1000 558.359   1.349 402.245   1.290 -999.250 -999.250 -999.250 -999.250 -999.250   7.931   1.425   1.568
2267.2000 558.304   1.458 402.522   1.317 -999.250 -999.250 -999.250 -999.250 -999.250   8.314   1.402   1.485
2267.3000 558.657   1.501 402.799   1.347 -999.250 -999.250 -999.250 -999.250 -999.250   8.307   1.397   1.416
2267.4000 559.034   1.549 402.918   1.377 -999.250 -999.250 -999.250 -999.250 -999.250   8.676   1.409   1.371
2267.5000 559.175   1.554 403.037   1.317 -999.250 -999.250 -999.250 -999.250 -999.250   8.230   1.446   1.344
2267.6000 558.752   1.488 403.100   1.255 -999.250 -999.250 -999.250 -999.250 -999.250   7.678   1.503   1.335
2267.7000 558.747   1.417 403.044   1.193 -999.250 -999.250 -999.250 -999.250 -999.250   7.309   1.538   1.332
2267.8000 558.467   1.354 402.971   1.206 -999.250 -999.250 -999.250 -999.250 -999.250   7.217   1.585   1.332
2267.9000 557.902   1.363 402.954   1.320 -999.250 -999.250 -999.250 -999.250 -999.250   7.639   1.582   1.327
2268.0000 557.954   1.411 402.840   1.433 -999.250 -999.250 -999.250 -999.250 -999.250   7.634   1.571   1.319
2268.1000 558.186   1.451 402.743   1.619 -999.250 -999.250 -999.250 -999.250 -999.250   7.557   1.531   1.313
2268.2000 558.284   1.485 402.741   1.705 -999.250 -999.250 -999.250 -999.250 -999.250   7.400   1.512   1.316
2268.3000 559.112   1.480 402.837   1.707 -999.250 -999.250 -999.250 -999.250 -999.250   7.156   1.495   1.335
2268.4000 559.646   1.489 403.198   1.625 -999.250 -999.250 -999.250 -999.250 -999.250   7.442   1.525   1.374
2268.5000 560.038   1.503 403.464   1.542 -999.250 -999.250 -999.250 -999.250 -999.250   7.014   1.559   1.435
2268.6000 560.141   1.553 403.912   1.399 -999.250 -999.250 -999.250 -999.250 -999.250   6.813   1.597   1.503
2268.7000 560.014   1.590 404.094   1.256 -999.250 -999.250 -999.250 -999.250 -999.250   7.248   1.609   1.566
2268.8000 559.808   1.619 404.134   1.070 -999.250 -999.250 -999.250 -999.250 -999.250   7.229   1.633   1.607
2268.9000 559.828   1.612 403.991   1.026 -999.250 -999.250 -999.250 -999.250 -999.250   7.138   1.631   1.615
2269.0000 559.381   1.596 403.676   1.001 -999.250 -999.250 -999.250 -999.250 -999.250   7.256   1.626   1.587
2269.1000 558.974   1.587 403.504   1.019 -999.250 -999.250 -999.250 -999.250 -999.250   7.521   1.636   1.524
2269.2000 558.810   1.607 403.190   1.140 -999.250 -999.250 -999.250 -999.250 -999.250   7.648   1.626   1.438
2269.3000 558.859   1.636 403.049   1.243 -999.250 -999.250 -999.250 -999.250 -999.250   7.400   1.638   1.344
2269.4000 558.990   1.625 402.748   1.440 -999.250 -999.250 -999.250 -999.250 -999.250   7.004   1.647   1.262
2269.5000 559.030   1.585 402.588   1.534 -999.250 -999.250 -999.250 -999.250 -999.250   6.347   1.678   1.206
2269.6000 559.059   1.486 402.487   1.597 -999.250 -999.250 -999.250 -999.250 -999.250   6.215   1.707   1.183
2269.7000 559.187   1.426 402.546   1.566 -999.250 -999.250 -999.250 -999.250 -999.250   6.136   1.734   1.195
2269.8000 559.182   1.367 402.738   1.535 -999.250 -999.250 -999.250 -999.250 -999.250   6.286   1.735   1.244
2269.9000 558.679   1.364 402.872   1.508 -999.250 -999.250 -999.250 -999.250 -999.250   6.898   1.710   1.319
2270.0000 558.520   1.362 403.017   1.481 -999.250 -999.250 -999.250 -999.250 -999.250   7.191   1.660   1.402
2270.1000 558.362   1.352 403.028   1.456 -999.250 -999.250 -999.250 -999.250 -999.250   7.668   1.610   1.477
2270.2000 558.551   1.345 403.040   1.458 -999.250 -999.250 -999.250 -999.250 -999.250   7.530   1.546   1.530
2270.3000 559.143   1.313 403.056   1.436 -999.250 -999.250 -999.250 -999.250 -999.250   7.311   1.491   1.561
2270.4000 559.519   1.288 403.073   1.413 -999.250 -999.250 -999.250 -999.250 -999.250   7.266   1.466   1.572
2270.5000 559.487   1.272 403.055   1.365 -999.250 -999.250 -999.250 -999.250 -999.250   7.457   1.454   1.565
2270.6000 559.584   1.282 403.020   1.341 -999.250 -999.250 -999.250 -999.250 -999.250   7.650   1.433   1.548
2270.7000 559.482   1.321 403.169   1.319 -999.250 -999.250 -999.250 -999.250 -999.250   7.725   1.417   1.523
2270.8000 559.509   1.351 403.351   1.321 -999.250 -999.250 -999.250 -999.250 -999.250   7.722   1.383   1.496
2270.9000 559.765   1.352 403.526   1.299 -999.250 -999.250 -999.250 -999.250 -999.250   8.001   1.374   1.468
2271.0000 559.917   1.323 403.517   1.274 -999.250 -999.250 -999.250 -999.250 -999.250   7.946   1.368   1.446
2271.1000 559.940   1.294 403.495   1.207 -999.250 -999.250 -999.250 -999.250 -999.250   7.837   1.388   1.429
2271.2000 560.036   1.267 403.482   1.163 -999.250 -999.250 -999.250 -999.250 -999.250   7.499   1.410   1.412
2271.3000 559.731   1.241 403.446   1.113 -999.250 -999.250 -999.250 -999.250 -999.250   7.576   1.434   1.394
2271.4000 559.545   1.233 403.423   1.106 -999.250 -999.250 -999.250 -999.250 -999.250   7.762   1.433   1.371
2271.5000 559.339   1.252 403.399   1.167 -999.250 -999.250 -999.250 -999.250 -999.250   7.628   1.409   1.340
2271.6000 559.442   1.275 403.026   1.234 -999.250 -999.250 -999.250 -999.250 -999.250   7.566   1.399   1.305
2271.7000 559.581   1.279 402.653   1.372 -999.250 -999.250 -999.250 -999.250 -999.250   7.461   1.370   1.270
2271.8000 559.885   1.281 402.005   1.442 -999.250 -999.250 -999.250 -999.250 -999.250   7.047   1.365   1.243
2271.9000 560.416   1.280 401.730   1.428 -999.250 -999.250 -999.250 -999.250 -999.250   6.305   1.343   1.237
2272.0000 560.055   1.267 401.308   1.344 -999.250 -999.250 -999.250 -999.250 -999.250   6.554   1.366   1.250
2272.1000 560.373   1.257 401.160   1.158 -999.250 -999.250 -999.250 -999.250 -999.250   6.382   1.370   1.279
