~Version Information
VERS.                     2.0 : CWLS Log ASCII Standart
WRAP.                     NO  : One line per depth step
~Well Information
STRT.M                      2020.3000  : Start Depth
STOP.M                      3250.0000  : Stop Depth
STEP.M                         0.1000  : Step
NULL.                         -999.25  : Null Value
COMP.      ООО"Кубаньгазпром"          : Company
WELL.      2р                          : Well
FLD .      Восточно-Прибрежная         : Field
LOC .                                  : Location
PROV.                                  : Province
SRVC.      ПФ"Кубаньгазгеофизика"      : Service Company
DATE.      3.01.2004 г                 : Log Date
UWI .                                  : Unique Well ID
~Curve Information
DEPT.M                                 :
ПСст.мВ                                :
N11М31.12                              :
ПС31.12                                :
А2  .                                  :
ПСст.мВ                                :
ПСст.мВ                                :
ПСст.мВ                                :
ПСст.мВ                                :
ПСст.мВ                                :
ГК4 .                                  :
N11M3.                                 :
A2M3.                                  :
~Other information
  Забой,м: 2572
  КОЛОННА.   Диаметр,мм: 514; 304
  Башмак,м: 25; 1108
  Раствор (тип): глинистый
  Удельный вес, г/см3: 1.5
  Вязкость,с: 40
  УЭС р-ра,Омм 1.4  t=12град
  Эталонировки:
  ГК:1мкР/ч= 240 имп/мин
~ASCII Log Data
# ...
2330.6000 561.884   0.943 400.071   0.742 -999.250 -999.250 -999.250 -999.250 -999.250   7.838   1.076   0.920
2330.7000 561.723   0.932 400.052   0.755 -999.250 -999.250 -999.250 -999.250 -999.250   7.928   1.068   0.917
2330.8000 561.031   0.933 400.004   0.767 -999.250 -999.250 -999.250 -999.250 -999.250   7.630   1.073   0.913
2330.9000 560.826   0.960 400.112   0.775 -999.250 -999.250 -999.250 -999.250 -999.250   7.714   1.076   0.904
2331.0000 560.653   0.986 400.268   0.771 -999.250 -999.250 -999.250 -999.250 -999.250   7.904   1.080   0.891
2331.1000 560.989   1.012 400.590   0.791 -999.250 -999.250 -999.250 -999.250 -999.250   7.894   1.084   0.875
2331.2000 560.872   1.028 400.756   0.814 -999.250 -999.250 -999.250 -999.250 -999.250   7.690   1.106   0.857
2331.3000 560.420   1.044 401.068   0.820 -999.250 -999.250 -999.250 -999.250 -999.250   7.180   1.108   0.848
2331.4000 560.271   1.065 401.213   0.803 -999.250 -999.250 -999.250 -999.250 -999.250   7.184   1.109   0.844
2331.5000 560.392   1.071 401.358   0.786 -999.250 -999.250 -999.250 -999.250 -999.250   7.328   1.106   0.851
2331.6000 560.233   1.079 401.472   0.786 -999.250 -999.250 -999.250 -999.250 -999.250   7.390   1.103   0.861
2331.7000 560.227   1.081 401.586   0.785 -999.250 -999.250 -999.250 -999.250 -999.250   7.648   1.099   0.874
2331.8000 560.444   1.083 401.699   0.811 -999.250 -999.250 -999.250 -999.250 -999.250   7.676   1.095   0.881
2331.9000 560.569   1.085 401.698   0.837 -999.250 -999.250 -999.250 -999.250 -999.250   7.687   1.093   0.882
2332.0000 560.943   1.069 401.651   0.860 -999.250 -999.250 -999.250 -999.250 -999.250   7.590   1.111   0.880
2332.1000 561.272   1.052 401.605   0.856 -999.250 -999.250 -999.250 -999.250 -999.250   7.207   1.130   0.877
2332.2000 561.330   1.047 401.451   0.847 -999.250 -999.250 -999.250 -999.250 -999.250   7.452   1.129   0.879
2332.3000 561.560   1.058 401.344   0.841 -999.250 -999.250 -999.250 -999.250 -999.250   7.238   1.125   0.885
2332.4000 562.094   1.034 401.170   0.840 -999.250 -999.250 -999.250 -999.250 -999.250   7.333   1.137   0.890
2332.5000 562.124   1.000 401.104   0.843 -999.250 -999.250 -999.250 -999.250 -999.250   7.353   1.129   0.899
2332.6000 561.860   0.978 401.040   0.849 -999.250 -999.250 -999.250 -999.250 -999.250   7.374   1.122   0.909
2332.7000 561.736   0.991 401.043   0.851 -999.250 -999.250 -999.250 -999.250 -999.250   7.511   1.113   0.922
2332.8000 561.977   0.990 401.147   0.863 -999.250 -999.250 -999.250 -999.250 -999.250   7.280   1.125   0.936
2332.9000 561.777   0.976 401.248   0.875 -999.250 -999.250 -999.250 -999.250 -999.250   7.201   1.138   0.950
2333.0000 561.725   0.958 401.417   0.899 -999.250 -999.250 -999.250 -999.250 -999.250   7.163   1.134   0.963
2333.1000 562.118   0.954 401.486   0.912 -999.250 -999.250 -999.250 -999.250 -999.250   7.059   1.107   0.974
2333.2000 562.428   0.945 401.516   0.936 -999.250 -999.250 -999.250 -999.250 -999.250   7.349   1.097   0.983
2333.3000 562.378   0.941 401.479   0.946 -999.250 -999.250 -999.250 -999.250 -999.250   7.481   1.088   0.985
2333.4000 562.250   0.938 401.280   0.958 -999.250 -999.250 -999.250 -999.250 -999.250   7.688   1.085   0.985
2333.5000 561.813   0.940 401.119   0.959 -999.250 -999.250 -999.250 -999.250 -999.250   7.850   1.084   0.983
2333.6000 561.756   0.935 400.870   0.954 -999.250 -999.250 -999.250 -999.250 -999.250   7.668   1.064   0.986
2333.7000 561.724   0.928 400.781   0.947 -999.250 -999.250 -999.250 -999.250 -999.250   7.546   1.045   0.989
2333.8000 561.657   0.941 400.675   0.956 -999.250 -999.250 -999.250 -999.250 -999.250   7.756   1.047   0.993
2333.9000 561.601   0.962 400.657   0.972 -999.250 -999.250 -999.250 -999.250 -999.250   7.780   1.032   1.000
2334.0000 561.798   0.999 400.651   0.989 -999.250 -999.250 -999.250 -999.250 -999.250   8.053   1.061   1.011
2334.1000 562.132   1.015 400.663   0.980 -999.250 -999.250 -999.250 -999.250 -999.250   8.095   1.069   1.020
2334.2000 562.107   1.019 400.731   0.972 -999.250 -999.250 -999.250 -999.250 -999.250   8.244   1.081   1.026
2334.3000 562.536   1.008 400.787   0.952 -999.250 -999.250 -999.250 -999.250 -999.250   8.158   1.087   1.028
2334.4000 562.652   0.993 400.783   0.941 -999.250 -999.250 -999.250 -999.250 -999.250   7.901   1.091   1.023
2334.5000 562.402   0.990 400.723   0.925 -999.250 -999.250 -999.250 -999.250 -999.250   7.315   1.093   1.014
2334.6000 562.067   0.987 400.564   0.921 -999.250 -999.250 -999.250 -999.250 -999.250   7.185   1.093   1.008
2334.7000 561.831   0.981 400.465   0.902 -999.250 -999.250 -999.250 -999.250 -999.250   7.179   1.093   1.003
2334.8000 561.646   0.975 400.316   0.887 -999.250 -999.250 -999.250 -999.250 -999.250   7.107   1.093   0.996
2334.9000 561.405   0.971 400.267   0.854 -999.250 -999.250 -999.250 -999.250 -999.250   7.029   1.092   0.990
2335.0000 561.087   0.974 400.217   0.836 -999.250 -999.250 -999.250 -999.250 -999.250   7.126   1.091   0.981
2335.1000 560.930   0.951 400.152   0.822 -999.250 -999.250 -999.250 -999.250 -999.250   7.173   1.091   0.970
2335.2000 560.574   0.957 400.086   0.825 -999.250 -999.250 -999.250 -999.250 -999.250   7.340   1.090   0.956
2335.3000 560.528   0.963 399.949   0.799 -999.250 -999.250 -999.250 -999.250 -999.250   7.359   1.090   0.942
2335.4000 560.391   0.972 399.877   0.768 -999.250 -999.250 -999.250 -999.250 -999.250   7.508   1.090   0.928
2335.5000 560.448   0.950 399.802   0.751 -999.250 -999.250 -999.250 -999.250 -999.250   7.537   1.090   0.915
2335.6000 560.514   0.927 399.766   0.764 -999.250 -999.250 -999.250 -999.250 -999.250   7.581   1.090   0.905
2335.7000 561.224   0.926 399.731   0.780 -999.250 -999.250 -999.250 -999.250 -999.250   7.750   1.070   0.897
2335.8000 561.307   0.924 399.831   0.783 -999.250 -999.250 -999.250 -999.250 -999.250   8.145   1.050   0.892
2335.9000 561.622   0.934 399.965   0.786 -999.250 -999.250 -999.250 -999.250 -999.250   8.383   1.050   0.885
2336.0000 561.303   0.944 400.145   0.786 -999.250 -999.250 -999.250 -999.250 -999.250   8.587   1.054   0.875
2336.1000 561.337   0.987 400.192   0.781 -999.250 -999.250 -999.250 -999.250 -999.250   8.139   1.062   0.867
2336.2000 561.431   1.020 400.238   0.776 -999.250 -999.250 -999.250 -999.250 -999.250   7.879   1.070   0.861
2336.3000 561.836   1.038 400.379   0.787 -999.250 -999.250 -999.250 -999.250 -999.250   7.811   1.077   0.859
2336.4000 562.110   1.023 400.519   0.803 -999.250 -999.250 -999.250 -999.250 -999.250   7.517   1.063   0.860
2336.5000 561.996   1.024 400.774   0.812 -999.250 -999.250 -999.250 -999.250 -999.250   7.640   1.067   0.864
2336.6000 561.677   1.041 400.888   0.806 -999.250 -999.250 -999.250 -999.250 -999.250   7.604   1.050   0.873
2336.7000 561.674   1.064 400.792   0.840 -999.250 -999.250 -999.250 -999.250 -999.250   7.701   1.055   0.883
2336.8000 561.817   1.070 400.582   0.880 -999.250 -999.250 -999.250 -999.250 -999.250   7.651   1.060   0.896
2336.9000 562.147   1.090 400.410   0.915 -999.250 -999.250 -999.250 -999.250 -999.250   7.386   1.088   0.911
2337.0000 562.847   1.103 400.447   0.909 -999.250 -999.250 -999.250 -999.250 -999.250   7.243   1.114   0.924
2337.1000 562.779   1.103 400.349   0.914 -999.250 -999.250 -999.250 -999.250 -999.250   7.298   1.140   0.936
2337.2000 562.892   1.090 400.214   0.925 -999.250 -999.250 -999.250 -999.250 -999.250   7.477   1.180   0.943
2337.3000 562.864   1.077 400.117   0.932 -999.250 -999.250 -999.250 -999.250 -999.250   7.677   1.195   0.945
2337.4000 562.480   1.078 400.156   0.928 -999.250 -999.250 -999.250 -999.250 -999.250   7.961   1.205   0.950
2337.5000 562.444   1.085 400.469   0.924 -999.250 -999.250 -999.250 -999.250 -999.250   8.162   1.187   0.956
2337.6000 562.166   1.091 400.742   0.929 -999.250 -999.250 -999.250 -999.250 -999.250   8.270   1.186   0.963
2337.7000 561.965   1.104 401.044   0.934 -999.250 -999.250 -999.250 -999.250 -999.250   8.343   1.202   0.971
2337.8000 561.895   1.111 401.072   0.944 -999.250 -999.250 -999.250 -999.250 -999.250   8.297   1.222   0.978
