~Version Information
VERS.                     2.0 : CWLS Log ASCII Standart
WRAP.                     NO  : One line per depth step
~Well Information
STRT.M                      2020.3000  : Start Depth
STOP.M                      3250.0000  : Stop Depth
STEP.M                         0.1000  : Step
NULL.                         -999.25  : Null Value
COMP.      ООО"Кубаньгазпром"          : Company
WELL.      2р                          : Well
FLD .      Восточно-Прибрежная         : Field
LOC .                                  : Location
PROV.                                  : Province
SRVC.      ПФ"Кубаньгазгеофизика"      : Service Company
DATE.      3.01.2004 г                 : Log Date
UWI .                                  : Unique Well ID
~Curve Information
DEPT.M                                 :
ПСст.мВ                                :
N11М31.12                              :
ПС31.12                                :
А2  .                                  :
ПСст.мВ                                :
ПСст.мВ                                :
ПСст.мВ                                :
ПСст.мВ                                :
ПСст.мВ                                :
ГК4 .                                  :
N11M3.                                 :
A2M3.                                  :
~Other information
  Забой,м: 2572
  КОЛОННА.   Диаметр,мм: 514; 304
  Башмак,м: 25; 1108
  Раствор (тип): глинистый
  Удельный вес, г/см3: 1.5
  Вязкость,с: 40
  УЭС р-ра,Омм 1.4  t=12град
  Эталонировки:
  ГК:1мкР/ч= 240 имп/мин
~ASCII Log Data
# ...
2396.3000 564.591   1.236 401.680   1.077 -999.250 -999.250 -999.250 -999.250 -999.250   8.764   1.373   1.134
2396.4000 564.481   1.256 401.648   1.092 -999.250 -999.250 -999.250 -999.250 -999.250   8.985   1.359   1.142
2396.5000 564.699   1.260 401.606   1.131 -999.250 -999.250 -999.250 -999.250 -999.250   9.313   1.342   1.149
2396.6000 564.816   1.271 401.627   1.155 -999.250 -999.250 -999.250 -999.250 -999.250   9.081   1.345   1.156
2396.7000 564.708   1.279 401.688   1.171 -999.250 -999.250 -999.250 -999.250 -999.250   8.665   1.350   1.162
2396.8000 564.311   1.269 401.754   1.163 -999.250 -999.250 -999.250 -999.250 -999.250   8.305   1.339   1.168
2396.9000 564.383   1.253 401.758   1.155 -999.250 -999.250 -999.250 -999.250 -999.250   7.740   1.328   1.177
2397.0000 564.477   1.236 401.742   1.124 -999.250 -999.250 -999.250 -999.250 -999.250   7.357   1.335   1.182
2397.1000 564.280   1.235 401.723   1.092 -999.250 -999.250 -999.250 -999.250 -999.250   7.631   1.344   1.186
2397.2000 564.315   1.235 401.536   1.062 -999.250 -999.250 -999.250 -999.250 -999.250   8.083   1.336   1.186
2397.3000 564.332   1.233 401.369   1.063 -999.250 -999.250 -999.250 -999.250 -999.250   8.241   1.326   1.180
2397.4000 564.511   1.233 401.203   1.084 -999.250 -999.250 -999.250 -999.250 -999.250   8.084   1.295   1.172
2397.5000 564.437   1.196 401.149   1.105 -999.250 -999.250 -999.250 -999.250 -999.250   8.303   1.305   1.165
2397.6000 564.606   1.161 401.095   1.117 -999.250 -999.250 -999.250 -999.250 -999.250   8.335   1.298   1.158
2397.7000 564.492   1.136 400.975   1.107 -999.250 -999.250 -999.250 -999.250 -999.250   8.033   1.316   1.150
2397.8000 564.764   1.135 400.909   1.109 -999.250 -999.250 -999.250 -999.250 -999.250   8.077   1.312   1.144
2397.9000 565.125   1.134 400.774   1.120 -999.250 -999.250 -999.250 -999.250 -999.250   8.510   1.290   1.141
2398.0000 565.015   1.104 400.705   1.131 -999.250 -999.250 -999.250 -999.250 -999.250   8.305   1.285   1.143
2398.1000 564.727   1.086 400.775   1.131 -999.250 -999.250 -999.250 -999.250 -999.250   8.315   1.260   1.151
2398.2000 564.615   1.054 400.964   1.122 -999.250 -999.250 -999.250 -999.250 -999.250   8.182   1.259   1.161
2398.3000 564.647   1.041 401.153   1.113 -999.250 -999.250 -999.250 -999.250 -999.250   8.044   1.240   1.173
2398.4000 564.120   1.014 401.184   1.092 -999.250 -999.250 -999.250 -999.250 -999.250   7.846   1.226   1.187
2398.5000 563.986   1.000 401.166   1.084 -999.250 -999.250 -999.250 -999.250 -999.250   7.954   1.212   1.198
2398.6000 563.598   0.988 401.211   1.075 -999.250 -999.250 -999.250 -999.250 -999.250   7.977   1.182   1.206
2398.7000 563.440   0.988 401.276   1.066 -999.250 -999.250 -999.250 -999.250 -999.250   7.770   1.155   1.209
2398.8000 563.555   0.981 401.087   1.053 -999.250 -999.250 -999.250 -999.250 -999.250   7.698   1.111   1.205
2398.9000 563.747   0.973 400.835   1.019 -999.250 -999.250 -999.250 -999.250 -999.250   7.628   1.092   1.195
2399.0000 564.094   0.945 400.383   0.999 -999.250 -999.250 -999.250 -999.250 -999.250   7.349   1.099   1.180
2399.1000 564.296   0.926 400.184   0.982 -999.250 -999.250 -999.250 -999.250 -999.250   7.166   1.075   1.161
2399.2000 564.458   0.913 399.891   0.985 -999.250 -999.250 -999.250 -999.250 -999.250   7.256   1.075   1.142
2399.3000 564.551   0.919 399.797   0.980 -999.250 -999.250 -999.250 -999.250 -999.250   7.622   1.073   1.121
2399.4000 564.481   0.958 399.510   0.973 -999.250 -999.250 -999.250 -999.250 -999.250   7.803   1.076   1.102
2399.5000 564.871   0.990 399.316   0.956 -999.250 -999.250 -999.250 -999.250 -999.250   7.966   1.079   1.082
2399.6000 564.997   1.036 399.330   0.947 -999.250 -999.250 -999.250 -999.250 -999.250   8.214   1.063   1.063
2399.7000 564.889   1.050 399.539   0.928 -999.250 -999.250 -999.250 -999.250 -999.250   7.958   1.085   1.041
2399.8000 564.703   1.072 399.939   0.918 -999.250 -999.250 -999.250 -999.250 -999.250   8.087   1.107   1.018
2399.9000 564.369   1.079 400.130   0.908 -999.250 -999.250 -999.250 -999.250 -999.250   7.694   1.113   0.996
2400.0000 564.674   1.098 400.500   0.918 -999.250 -999.250 -999.250 -999.250 -999.250   7.434   1.133   0.979
2400.1000 564.769   1.110 400.679   0.929 -999.250 -999.250 -999.250 -999.250 -999.250   7.228   1.130   0.964
2400.2000 564.683   1.122 401.039   0.948 -999.250 -999.250 -999.250 -999.250 -999.250   7.546   1.145   0.954
2400.3000 564.907   1.141 401.219   0.958 -999.250 -999.250 -999.250 -999.250 -999.250   7.667   1.176   0.949
2400.4000 564.866   1.182 401.486   0.931 -999.250 -999.250 -999.250 -999.250 -999.250   8.048   1.168   0.949
2400.5000 565.211   1.222 401.573   0.894 -999.250 -999.250 -999.250 -999.250 -999.250   8.233   1.177   0.953
2400.6000 565.142   1.273 401.660   0.871 -999.250 -999.250 -999.250 -999.250 -999.250   8.045   1.160   0.960
2400.7000 564.711   1.303 401.751   0.886 -999.250 -999.250 -999.250 -999.250 -999.250   8.332   1.164   0.967
2400.8000 564.580   1.342 401.933   0.901 -999.250 -999.250 -999.250 -999.250 -999.250   8.571   1.186   0.974
2400.9000 564.217   1.351 402.115   0.894 -999.250 -999.250 -999.250 -999.250 -999.250   8.586   1.231   0.977
2401.0000 563.817   1.360 402.226   0.886 -999.250 -999.250 -999.250 -999.250 -999.250   8.229   1.276   0.978
2401.1000 563.567   1.361 402.246   0.891 -999.250 -999.250 -999.250 -999.250 -999.250   7.638   1.316   0.978
2401.2000 563.635   1.334 402.247   0.904 -999.250 -999.250 -999.250 -999.250 -999.250   7.639   1.347   0.974
2401.3000 563.290   1.306 402.229   0.931 -999.250 -999.250 -999.250 -999.250 -999.250   7.735   1.388   0.970
2401.4000 563.489   1.277 402.211   0.945 -999.250 -999.250 -999.250 -999.250 -999.250   8.034   1.403   0.968
2401.5000 563.674   1.246 402.101   0.973 -999.250 -999.250 -999.250 -999.250 -999.250   8.095   1.430   0.967
2401.6000 564.298   1.215 401.804   0.987 -999.250 -999.250 -999.250 -999.250 -999.250   7.932   1.430   0.965
2401.7000 564.266   1.171 401.508   0.995 -999.250 -999.250 -999.250 -999.250 -999.250   8.094   1.407   0.964
2401.8000 564.813   1.158 401.321   0.990 -999.250 -999.250 -999.250 -999.250 -999.250   8.131   1.398   0.963
2401.9000 564.865   1.140 401.184   0.992 -999.250 -999.250 -999.250 -999.250 -999.250   8.524   1.369   0.965
2402.0000 564.678   1.134 401.047   1.000 -999.250 -999.250 -999.250 -999.250 -999.250   8.532   1.345   0.972
2402.1000 564.381   1.120 400.873   0.982 -999.250 -999.250 -999.250 -999.250 -999.250   8.479   1.304   0.984
2402.2000 564.196   1.125 400.836   0.955 -999.250 -999.250 -999.250 -999.250 -999.250   8.242   1.287   0.997
2402.3000 564.173   1.130 400.824   0.946 -999.250 -999.250 -999.250 -999.250 -999.250   7.994   1.256   1.011
2402.4000 563.715   1.143 400.848   0.964 -999.250 -999.250 -999.250 -999.250 -999.250   7.924   1.233   1.026
2402.5000 563.418   1.136 400.834   0.982 -999.250 -999.250 -999.250 -999.250 -999.250   7.699   1.194   1.041
2402.6000 562.879   1.130 400.908   0.981 -999.250 -999.250 -999.250 -999.250 -999.250   8.114   1.180   1.055
2402.7000 562.924   1.123 400.982   0.971 -999.250 -999.250 -999.250 -999.250 -999.250   8.010   1.171   1.067
2402.8000 562.906   1.123 401.094   0.960 -999.250 -999.250 -999.250 -999.250 -999.250   8.205   1.151   1.077
2402.9000 563.242   1.132 401.095   0.969 -999.250 -999.250 -999.250 -999.250 -999.250   8.080   1.172   1.084
2403.0000 563.569   1.142 401.097   0.988 -999.250 -999.250 -999.250 -999.250 -999.250   7.886   1.176   1.093
2403.1000 563.530   1.177 401.046   1.008 -999.250 -999.250 -999.250 -999.250 -999.250   7.749   1.203   1.097
2403.2000 563.547   1.202 400.994   1.016 -999.250 -999.250 -999.250 -999.250 -999.250   7.742   1.206   1.094
2403.3000 563.622   1.208 400.974   1.039 -999.250 -999.250 -999.250 -999.250 -999.250   7.933   1.248   1.093
2403.4000 563.704   1.189 401.005   1.063 -999.250 -999.250 -999.250 -999.250 -999.250   8.116   1.265   1.087
2403.5000 563.660   1.161 400.894   1.078 -999.250 -999.250 -999.250 -999.250 -999.250   8.362   1.281   1.083
