~Version Information
VERS.                     2.0 : CWLS Log ASCII Standart
WRAP.                     NO  : One line per depth step
~Well Information
STRT.M                      2020.3000  : Start Depth
STOP.M                      3250.0000  : Stop Depth
STEP.M                         0.1000  : Step
NULL.                         -999.25  : Null Value
COMP.      ООО"Кубаньгазпром"          : Company
WELL.      2р                          : Well
FLD .      Восточно-Прибрежная         : Field
LOC .                                  : Location
PROV.                                  : Province
SRVC.      ПФ"Кубаньгазгеофизика"      : Service Company
DATE.      3.01.2004 г                 : Log Date
UWI .                                  : Unique Well ID
~Curve Information
DEPT.M                                 :
ПСст.мВ                                :
N11М31.12                              :
ПС31.12                                :
А2  .                                  :
ПСст.мВ                                :
ПСст.мВ                                :
ПСст.мВ                                :
ПСст.мВ                                :
ПСст.мВ                                :
ГК4 .                                  :
N11M3.                                 :
A2M3.                                  :
~Other information
  Забой,м: 2572
  КОЛОННА.   Диаметр,мм: 514; 304
  Башмак,м: 25; 1108
  Раствор (тип): глинистый
  Удельный вес, г/см3: 1.5
  Вязкость,с: 40
  УЭС р-ра,Омм 1.4  t=12град
  Эталонировки:
  ГК:1мкР/ч= 240 имп/мин
~ASCII Log Data
# ...
2191.9000 560.781   1.528 412.663   1.557 -999.250 -999.250 -999.250 -999.250 -999.250   6.692   1.623   1.670
2192.0000 560.873   1.513 412.801   1.554 -999.250 -999.250 -999.250 -999.250 -999.250   6.875   1.609   1.666
2192.1000 560.990   1.478 413.010   1.532 -999.250 -999.250 -999.250 -999.250 -999.250   6.876   1.597   1.662
2192.2000 561.129   1.457 413.080   1.513 -999.250 -999.250 -999.250 -999.250 -999.250   6.877   1.609   1.656
2192.3000 561.866   1.443 413.311   1.512 -999.250 -999.250 -999.250 -999.250 -999.250   6.662   1.604   1.651
2192.4000 562.580   1.450 413.471   1.530 -999.250 -999.250 -999.250 -999.250 -999.250   6.836   1.582   1.645
2192.5000 563.760   1.472 413.634   1.558 -999.250 -999.250 -999.250 -999.250 -999.250   6.977   1.557   1.637
2192.6000 563.682   1.486 413.637   1.555 -999.250 -999.250 -999.250 -999.250 -999.250   7.076   1.533   1.629
2192.7000 563.831   1.494 413.726   1.552 -999.250 -999.250 -999.250 -999.250 -999.250   7.380   1.514   1.619
2192.8000 563.621   1.488 413.812   1.538 -999.250 -999.250 -999.250 -999.250 -999.250   7.513   1.519   1.614
2192.9000 563.427   1.465 414.008   1.536 -999.250 -999.250 -999.250 -999.250 -999.250   7.692   1.529   1.614
2193.0000 563.326   1.447 414.117   1.532 -999.250 -999.250 -999.250 -999.250 -999.250   7.479   1.543   1.614
2193.1000 563.267   1.417 414.398   1.529 -999.250 -999.250 -999.250 -999.250 -999.250   7.283   1.556   1.619
2193.2000 563.370   1.403 414.568   1.529 -999.250 -999.250 -999.250 -999.250 -999.250   6.959   1.567   1.622
2193.3000 563.371   1.404 414.991   1.531 -999.250 -999.250 -999.250 -999.250 -999.250   6.765   1.575   1.624
2193.4000 563.506   1.418 415.244   1.528 -999.250 -999.250 -999.250 -999.250 -999.250   6.780   1.581   1.622
2193.5000 563.744   1.433 415.728   1.522 -999.250 -999.250 -999.250 -999.250 -999.250   6.631   1.584   1.618
2193.6000 564.228   1.435 415.960   1.499 -999.250 -999.250 -999.250 -999.250 -999.250   6.663   1.566   1.612
2193.7000 564.563   1.428 416.798   1.482 -999.250 -999.250 -999.250 -999.250 -999.250   6.325   1.547   1.605
2193.8000 565.589   1.419 417.404   1.440 -999.250 -999.250 -999.250 -999.250 -999.250   6.684   1.547   1.595
2193.9000 566.149   1.400 418.669   1.414 -999.250 -999.250 -999.250 -999.250 -999.250   6.717   1.551   1.581
2194.0000 566.149   1.390 419.327   1.409 -999.250 -999.250 -999.250 -999.250 -999.250   6.935   1.538   1.565
2194.1000 566.190   1.389 420.497   1.428 -999.250 -999.250 -999.250 -999.250 -999.250   6.896   1.526   1.547
2194.2000 565.872   1.397 421.008   1.446 -999.250 -999.250 -999.250 -999.250 -999.250   6.875   1.513   1.526
2194.3000 565.677   1.418 421.802   1.445 -999.250 -999.250 -999.250 -999.250 -999.250   6.932   1.502   1.507
2194.4000 565.352   1.430 422.084   1.443 -999.250 -999.250 -999.250 -999.250 -999.250   6.998   1.494   1.490
2194.5000 565.583   1.445 422.174   1.443 -999.250 -999.250 -999.250 -999.250 -999.250   7.591   1.508   1.474
2194.6000 566.346   1.447 421.982   1.415 -999.250 -999.250 -999.250 -999.250 -999.250   7.703   1.525   1.458
2194.7000 567.421   1.447 421.330   1.387 -999.250 -999.250 -999.250 -999.250 -999.250   7.789   1.523   1.447
2194.8000 568.944   1.445 420.869   1.334 -999.250 -999.250 -999.250 -999.250 -999.250   7.464   1.518   1.437
2194.9000 570.314   1.438 420.193   1.308 -999.250 -999.250 -999.250 -999.250 -999.250   7.178   1.510   1.427
2195.0000 571.222   1.431 419.977   1.275 -999.250 -999.250 -999.250 -999.250 -999.250   6.753   1.522   1.423
2195.1000 571.332   1.411 419.689   1.266 -999.250 -999.250 -999.250 -999.250 -999.250   6.645   1.536   1.415
2195.2000 571.415   1.397 419.617   1.259 -999.250 -999.250 -999.250 -999.250 -999.250   6.576   1.550   1.403
2195.3000 571.316   1.395 419.417   1.260 -999.250 -999.250 -999.250 -999.250 -999.250   6.595   1.583   1.388
2195.4000 571.195   1.408 419.290   1.259 -999.250 -999.250 -999.250 -999.250 -999.250   6.697   1.572   1.369
2195.5000 571.058   1.412 419.138   1.258 -999.250 -999.250 -999.250 -999.250 -999.250   6.919   1.559   1.353
2195.6000 571.557   1.404 419.115   1.265 -999.250 -999.250 -999.250 -999.250 -999.250   6.898   1.540   1.339
2195.7000 571.094   1.415 418.849   1.273 -999.250 -999.250 -999.250 -999.250 -999.250   7.062   1.522   1.326
2195.8000 571.028   1.434 418.608   1.292 -999.250 -999.250 -999.250 -999.250 -999.250   6.989   1.507   1.319
2195.9000 570.245   1.442 418.223   1.303 -999.250 -999.250 -999.250 -999.250 -999.250   6.965   1.497   1.318
2196.0000 569.802   1.431 418.081   1.305 -999.250 -999.250 -999.250 -999.250 -999.250   6.802   1.509   1.323
2196.1000 569.249   1.412 418.380   1.296 -999.250 -999.250 -999.250 -999.250 -999.250   6.823   1.504   1.331
2196.2000 568.975   1.404 418.821   1.311 -999.250 -999.250 -999.250 -999.250 -999.250   6.625   1.502   1.342
2196.3000 568.174   1.393 420.417   1.335 -999.250 -999.250 -999.250 -999.250 -999.250   6.616   1.497   1.354
2196.4000 567.606   1.390 421.572   1.372 -999.250 -999.250 -999.250 -999.250 -999.250   6.592   1.513   1.365
2196.5000 567.340   1.394 424.432   1.386 -999.250 -999.250 -999.250 -999.250 -999.250   6.441   1.510   1.374
2196.6000 566.741   1.401 426.138   1.426 -999.250 -999.250 -999.250 -999.250 -999.250   6.672   1.507   1.385
2196.7000 566.502   1.414 429.922   1.453 -999.250 -999.250 -999.250 -999.250 -999.250   6.840   1.522   1.394
2196.8000 566.439   1.420 431.999   1.471 -999.250 -999.250 -999.250 -999.250 -999.250   7.413   1.497   1.400
2196.9000 566.496   1.438 435.887   1.462 -999.250 -999.250 -999.250 -999.250 -999.250   7.760   1.492   1.404
2197.0000 567.465   1.451 437.699   1.421 -999.250 -999.250 -999.250 -999.250 -999.250   7.934   1.505   1.409
2197.1000 568.816   1.490 440.474   1.388 -999.250 -999.250 -999.250 -999.250 -999.250   7.648   1.542   1.416
2197.2000 570.896   1.517 441.436   1.350 -999.250 -999.250 -999.250 -999.250 -999.250   7.603   1.560   1.426
2197.3000 573.769   1.537 442.668   1.343 -999.250 -999.250 -999.250 -999.250 -999.250   7.221   1.576   1.436
2197.4000 577.112   1.531 442.938   1.323 -999.250 -999.250 -999.250 -999.250 -999.250   6.837   1.604   1.444
2197.5000 580.286   1.496 442.724   1.309 -999.250 -999.250 -999.250 -999.250 -999.250   6.594   1.629   1.447
2197.6000 582.885   1.467 442.240   1.270 -999.250 -999.250 -999.250 -999.250 -999.250   6.695   1.670   1.441
2197.7000 585.679   1.439 441.319   1.244 -999.250 -999.250 -999.250 -999.250 -999.250   6.715   1.666   1.431
2197.8000 588.084   1.439 440.881   1.188 -999.250 -999.250 -999.250 -999.250 -999.250   6.821   1.696   1.417
2197.9000 590.094   1.409 440.651   1.157 -999.250 -999.250 -999.250 -999.250 -999.250   6.367   1.679   1.401
2198.0000 591.175   1.380 440.859   1.116 -999.250 -999.250 -999.250 -999.250 -999.250   6.171   1.682   1.382
2198.1000 591.651   1.389 441.393   1.106 -999.250 -999.250 -999.250 -999.250 -999.250   6.222   1.660   1.362
2198.2000 591.725   1.428 441.720   1.122 -999.250 -999.250 -999.250 -999.250 -999.250   6.129   1.661   1.339
2198.3000 591.336   1.501 441.957   1.148 -999.250 -999.250 -999.250 -999.250 -999.250   6.061   1.641   1.317
2198.4000 590.606   1.535 441.868   1.176 -999.250 -999.250 -999.250 -999.250 -999.250   6.240   1.626   1.294
2198.5000 589.860   1.597 440.371   1.178 -999.250 -999.250 -999.250 -999.250 -999.250   6.153   1.591   1.276
2198.6000 589.193   1.625 438.964   1.165 -999.250 -999.250 -999.250 -999.250 -999.250   6.435   1.579   1.259
2198.7000 588.671   1.624 435.416   1.151 -999.250 -999.250 -999.250 -999.250 -999.250   6.667   1.591   1.244
2198.8000 588.669   1.595 433.276   1.100 -999.250 -999.250 -999.250 -999.250 -999.250   7.035   1.589   1.231
2198.9000 589.293   1.537 429.122   1.064 -999.250 -999.250 -999.250 -999.250 -999.250   7.207   1.590   1.219
2199.0000 590.145   1.507 427.107   1.015 -999.250 -999.250 -999.250 -999.250 -999.250   7.062   1.609   1.209
2199.1000 590.381   1.458 423.784   1.004 -999.250 -999.250 -999.250 -999.250 -999.250   6.811   1.628   1.192
