~Version Information
VERS.                     2.0 : CWLS Log ASCII Standart
WRAP.                     NO  : One line per depth step
~Well Information
STRT.M                      2020.3000  : Start Depth
STOP.M                      3250.0000  : Stop Depth
STEP.M                         0.1000  : Step
NULL.                         -999.25  : Null Value
COMP.      ООО"Кубаньгазпром"          : Company
WELL.      2р                          : Well
FLD .      Восточно-Прибрежная         : Field
LOC .                                  : Location
PROV.                                  : Province
SRVC.      ПФ"Кубаньгазгеофизика"      : Service Company
DATE.      3.01.2004 г                 : Log Date
UWI .                                  : Unique Well ID
~Curve Information
DEPT.M                                 :
ПСст.мВ                                :
N11М31.12                              :
ПС31.12                                :
А2  .                                  :
ПСст.мВ                                :
ПСст.мВ                                :
ПСст.мВ                                :
ПСст.мВ                                :
ПСст.мВ                                :
ГК4 .                                  :
N11M3.                                 :
A2M3.                                  :
~Other information
  Забой,м: 2572
  КОЛОННА.   Диаметр,мм: 514; 304
  Башмак,м: 25; 1108
  Раствор (тип): глинистый
  Удельный вес, г/см3: 1.5
  Вязкость,с: 40
  УЭС р-ра,Омм 1.4  t=12град
  Эталонировки:
  ГК:1мкР/ч= 240 имп/мин
~ASCII Log Data
# ...
3047.7000 -999.250 -999.250 -999.250 -999.250 -999.250 -999.250 411.760 429.952 398.099   8.593   0.855   0.899
3047.8000 -999.250 -999.250 -999.250 -999.250 -999.250 -999.250 411.927 430.387 397.924   8.666   0.818   0.887
3047.9000 -999.250 -999.250 -999.250 -999.250 -999.250 -999.250 412.273 430.697 397.505   8.731   0.805   0.890
3048.0000 -999.250 -999.250 -999.250 -999.250 -999.250 -999.250 412.452 431.015 397.261   8.812   0.831   0.897
3048.1000 -999.250 -999.250 -999.250 -999.250 -999.250 -999.250 412.693 431.301 396.954   8.914   0.869   0.899
3048.2000 -999.250 -999.250 -999.250 -999.250 -999.250 -999.250 412.754 431.355 396.891   8.910   0.899   0.891
3048.3000 -999.250 -999.250 -999.250 -999.250 -999.250 -999.250 412.926 431.031 396.813   8.583   0.890   0.899
3048.4000 -999.250 -999.250 -999.250 -999.250 -999.250 -999.250 413.037 430.680 396.798   8.253   0.876   0.929
3048.5000 -999.250 -999.250 -999.250 -999.250 -999.250 -999.250 413.074 430.400 396.965   7.899   0.872   0.981
3048.6000 -999.250 -999.250 -999.250 -999.250 -999.250 -999.250 412.999 430.403 397.148   7.750   0.847   1.021
3048.7000 -999.250 -999.250 -999.250 -999.250 -999.250 -999.250 412.813 430.621 397.330   7.650   0.827   1.048
3048.8000 -999.250 -999.250 -999.250 -999.250 -999.250 -999.250 412.702 430.971 397.475   7.802   0.816   1.041
3048.9000 -999.250 -999.250 -999.250 -999.250 -999.250 -999.250 412.533 431.109 397.620   8.023   0.825   1.004
3049.0000 -999.250 -999.250 -999.250 -999.250 -999.250 -999.250 412.475 431.093 397.830   8.249   0.861   0.945
3049.1000 -999.250 -999.250 -999.250 -999.250 -999.250 -999.250 412.420 430.795 397.894   8.170   0.888   0.898
3049.2000 -999.250 -999.250 -999.250 -999.250 -999.250 -999.250 412.423 430.543 398.100   8.075   0.890   0.879
3049.3000 -999.250 -999.250 -999.250 -999.250 -999.250 -999.250 412.379 430.087 398.241   7.959   0.865   0.853
3049.4000 -999.250 -999.250 -999.250 -999.250 -999.250 -999.250 412.333 429.853 398.367   7.942   0.850   0.817
3049.5000 -999.250 -999.250 -999.250 -999.250 -999.250 -999.250 412.232 429.763 398.353   7.824   0.861   0.788
3049.6000 -999.250 -999.250 -999.250 -999.250 -999.250 -999.250 412.176 429.911 398.248   7.778   0.841   0.789
3049.7000 -999.250 -999.250 -999.250 -999.250 -999.250 -999.250 412.047 429.976 398.158   7.866   0.785   0.773
3049.8000 -999.250 -999.250 -999.250 -999.250 -999.250 -999.250 411.973 429.996 397.906   8.095   0.729   0.737
3049.9000 -999.250 -999.250 -999.250 -999.250 -999.250 -999.250 411.751 429.943 397.745   8.335   0.729   0.684
3050.0000 -999.250 -999.250 -999.250 -999.250 -999.250 -999.250 411.603 429.856 397.377   8.342   0.757   0.647
3050.1000 -999.250 -999.250 -999.250 -999.250 -999.250 -999.250 411.407 429.903 397.171   8.344   0.778   0.626
3050.2000 -999.250 -999.250 -999.250 -999.250 -999.250 -999.250 411.424 430.047 396.964   8.261   0.772   0.631
3050.3000 -999.250 -999.250 -999.250 -999.250 -999.250 -999.250 411.442 430.343 396.898   8.342   0.791   0.651
3050.4000 -999.250 -999.250 -999.250 -999.250 -999.250 -999.250 411.477 430.719 396.832   8.275   0.815   0.666
3050.5000 -999.250 -999.250 -999.250 -999.250 -999.250 -999.250 411.446 431.035 396.838   8.007   0.818   0.675
3050.6000 -999.250 -999.250 -999.250 -999.250 -999.250 -999.250 411.505 431.209 396.909   7.918   0.797   0.695
3050.7000 -999.250 -999.250 -999.250 -999.250 -999.250 -999.250 411.595 431.181 396.895   7.914   0.782   0.726
3050.8000 -999.250 -999.250 -999.250 -999.250 -999.250 -999.250 411.775 431.164 396.809   8.061   0.787   0.750
3050.9000 -999.250 -999.250 -999.250 -999.250 -999.250 -999.250 411.865 431.058 396.638   8.173   0.802   0.759
3051.0000 -999.250 -999.250 -999.250 -999.250 -999.250 -999.250 412.016 431.050 396.553   8.279   0.813   0.775
3051.1000 -999.250 -999.250 -999.250 -999.250 -999.250 -999.250 412.077 431.141 396.423   8.459   0.811   0.807
3051.2000 -999.250 -999.250 -999.250 -999.250 -999.250 -999.250 412.347 431.344 396.377   8.512   0.797   0.829
3051.3000 -999.250 -999.250 -999.250 -999.250 -999.250 -999.250 412.556 431.629 396.327   8.609   0.794   0.818
3051.4000 -999.250 -999.250 -999.250 -999.250 -999.250 -999.250 412.876 431.866 396.322   8.738   0.805   0.790
3051.5000 -999.250 -999.250 -999.250 -999.250 -999.250 -999.250 412.987 432.029 396.458   8.676   0.827   0.782
3051.6000 -999.250 -999.250 -999.250 -999.250 -999.250 -999.250 413.193 432.188 396.598   8.490   0.838   0.800
3051.7000 -999.250 -999.250 -999.250 -999.250 -999.250 -999.250 413.288 432.281 396.944   8.035   0.855   0.824
3051.8000 -999.250 -999.250 -999.250 -999.250 -999.250 -999.250 413.292 432.466 397.149   7.906   0.860   0.835
3051.9000 -999.250 -999.250 -999.250 -999.250 -999.250 -999.250 413.200 432.647 397.505   7.860   0.854   0.829
3052.0000 -999.250 -999.250 -999.250 -999.250 -999.250 -999.250 412.918 432.865 397.656   8.128   0.842   0.813
3052.1000 -999.250 -999.250 -999.250 -999.250 -999.250 -999.250 412.727 433.053 397.902   8.241   0.810   0.788
3052.2000 -999.250 -999.250 -999.250 -999.250 -999.250 -999.250 412.586 433.078 397.997   8.478   0.789   0.768
3052.3000 -999.250 -999.250 -999.250 -999.250 -999.250 -999.250 412.636 433.101 398.101   8.663   0.804   0.761
3052.4000 -999.250 -999.250 -999.250 -999.250 -999.250 -999.250 412.239 432.986 398.111   8.844   0.823   0.769
3052.5000 -999.250 -999.250 -999.250 -999.250 -999.250 -999.250 411.792 432.877 398.200   8.751   0.842   0.778
3052.6000 -999.250 -999.250 -999.250 -999.250 -999.250 -999.250 411.073 432.698 398.279   8.363   0.815   0.779
3052.7000 -999.250 -999.250 -999.250 -999.250 -999.250 -999.250 410.803 432.503 398.344   7.869   0.806   0.783
3052.8000 -999.250 -999.250 -999.250 -999.250 -999.250 -999.250 410.626 432.308 398.329   7.501   0.806   0.810
3052.9000 -999.250 -999.250 -999.250 -999.250 -999.250 -999.250 410.601 432.051 398.321   7.445   0.815   0.840
3053.0000 -999.250 -999.250 -999.250 -999.250 -999.250 -999.250 410.575 431.835 398.328   7.598   0.829   0.843
3053.1000 -999.250 -999.250 -999.250 -999.250 -999.250 -999.250 410.909 431.504 398.480   7.644   0.832   0.822
3053.2000 -999.250 -999.250 -999.250 -999.250 -999.250 -999.250 411.365 431.266 398.626   7.637   0.837   0.805
3053.3000 -999.250 -999.250 -999.250 -999.250 -999.250 -999.250 412.196 431.206 398.849   7.699   0.837   0.811
3053.4000 -999.250 -999.250 -999.250 -999.250 -999.250 -999.250 412.572 431.301 398.925   8.003   0.858   0.831
3053.5000 -999.250 -999.250 -999.250 -999.250 -999.250 -999.250 412.781 431.498 399.002   8.106   0.877   0.844
3053.6000 -999.250 -999.250 -999.250 -999.250 -999.250 -999.250 412.613 431.469 398.984   8.075   0.866   0.836
3053.7000 -999.250 -999.250 -999.250 -999.250 -999.250 -999.250 412.759 431.211 398.966   7.957   0.836   0.815
3053.8000 -999.250 -999.250 -999.250 -999.250 -999.250 -999.250 413.074 430.839 398.839   8.139   0.810   0.807
3053.9000 -999.250 -999.250 -999.250 -999.250 -999.250 -999.250 413.517 430.511 398.731   8.358   0.815   0.819
3054.0000 -999.250 -999.250 -999.250 -999.250 -999.250 -999.250 413.647 430.474 398.347   8.658   0.823   0.832
3054.1000 -999.250 -999.250 -999.250 -999.250 -999.250 -999.250 413.817 430.476 398.073   8.901   0.826   0.833
3054.2000 -999.250 -999.250 -999.250 -999.250 -999.250 -999.250 413.857 430.381 397.521   8.900   0.840   0.833
3054.3000 -999.250 -999.250 -999.250 -999.250 -999.250 -999.250 414.117 430.089 397.243   8.754   0.852   0.838
3054.4000 -999.250 -999.250 -999.250 -999.250 -999.250 -999.250 414.337 429.840 396.938   8.497   0.854   0.844
3054.5000 -999.250 -999.250 -999.250 -999.250 -999.250 -999.250 414.367 429.920 396.909   8.338   0.843   0.835
3054.6000 -999.250 -999.250 -999.250 -999.250 -999.250 -999.250 414.176 430.456 397.021   8.193   0.844   0.813
3054.7000 -999.250 -999.250 -999.250 -999.250 -999.250 -999.250 413.224 431.224 397.161   8.159   0.854   0.789
3054.8000 -999.250 -999.250 -999.250 -999.250 -999.250 -999.250 412.462 431.833 397.564   8.344   0.865   0.777
