~Version Information
VERS.                     2.0 : CWLS Log ASCII Standart
WRAP.                     NO  : One line per depth step
~Well Information
STRT.M                      2020.3000  : Start Depth
STOP.M                      3250.0000  : Stop Depth
STEP.M                         0.1000  : Step
NULL.                         -999.25  : Null Value
COMP.      ООО"Кубаньгазпром"          : Company
WELL.      2р                          : Well
FLD .      Восточно-Прибрежная         : Field
LOC .                                  : Location
PROV.                                  : Province
SRVC.      ПФ"Кубаньгазгеофизика"      : Service Company
DATE.      3.01.2004 г                 : Log Date
UWI .                                  : Unique Well ID
~Curve Information
DEPT.M                                 :
ПСст.мВ                                :
N11М31.12                              :
ПС31.12                                :
А2  .                                  :
ПСст.мВ                                :
ПСст.мВ                                :
ПСст.мВ                                :
ПСст.мВ                                :
ПСст.мВ                                :
ГК4 .                                  :
N11M3.                                 :
A2M3.                                  :
~Other information
  Забой,м: 2572
  КОЛОННА.   Диаметр,мм: 514; 304
  Башмак,м: 25; 1108
  Раствор (тип): глинистый
  Удельный вес, г/см3: 1.5
  Вязкость,с: 40
  УЭС р-ра,Омм 1.4  t=12град
  Эталонировки:
  ГК:1мкР/ч= 240 имп/мин
~ASCII Log Data
# ...
2213.8000 554.980   1.727 403.661   1.746 -999.250 -999.250 -999.250 -999.250 -999.250   7.863   1.631   3.067
2213.9000 555.028   1.717 403.783   1.229 -999.250 -999.250 -999.250 -999.250 -999.250   7.907   1.680   3.131
2214.0000 555.405   1.709 403.755   1.068 -999.250 -999.250 -999.250 -999.250 -999.250   8.239   1.699   3.062
2214.1000 555.594   1.630 403.611   0.812 -999.250 -999.250 -999.250 -999.250 -999.250   7.747   1.729   2.871
2214.2000 556.020   1.561 403.495   0.716 -999.250 -999.250 -999.250 -999.250 -999.250   8.014   1.749   2.585
2214.3000 555.877   1.471 403.372   0.588 -999.250 -999.250 -999.250 -999.250 -999.250   8.328   1.746   2.244
2214.4000 556.067   1.451 403.365   0.556 -999.250 -999.250 -999.250 -999.250 -999.250   8.609   1.737   1.884
2214.5000 556.048   1.477 403.293   0.536 -999.250 -999.250 -999.250 -999.250 -999.250   8.876   1.704   1.533
2214.6000 556.304   1.522 403.226   0.548 -999.250 -999.250 -999.250 -999.250 -999.250   9.034   1.651   1.216
2214.7000 556.029   1.599 403.258   0.574 -999.250 -999.250 -999.250 -999.250 -999.250   9.141   1.601   0.952
2214.8000 555.635   1.629 403.356   0.587 -999.250 -999.250 -999.250 -999.250 -999.250   8.906   1.557   0.753
2214.9000 555.682   1.627 403.532   0.632 -999.250 -999.250 -999.250 -999.250 -999.250   8.288   1.524   0.618
2215.0000 555.538   1.594 403.609   0.659 -999.250 -999.250 -999.250 -999.250 -999.250   8.584   1.541   0.542
2215.1000 555.349   1.527 403.660   0.686 -999.250 -999.250 -999.250 -999.250 -999.250   8.453   1.546   0.508
2215.2000 555.028   1.493 403.632   0.715 -999.250 -999.250 -999.250 -999.250 -999.250   8.554   1.558   0.511
2215.3000 555.352   1.464 403.591   0.748 -999.250 -999.250 -999.250 -999.250 -999.250   8.862   1.547   0.534
2215.4000 555.097   1.462 403.576   0.895 -999.250 -999.250 -999.250 -999.250 -999.250   8.696   1.554   0.572
2215.5000 555.030   1.460 403.586   1.007 -999.250 -999.250 -999.250 -999.250 -999.250   8.856   1.560   0.616
2215.6000 555.391   1.460 403.609   1.160 -999.250 -999.250 -999.250 -999.250 -999.250   8.958   1.567   0.665
2215.7000 555.927   1.469 403.682   1.201 -999.250 -999.250 -999.250 -999.250 -999.250   8.559   1.573   0.722
2215.8000 556.106   1.480 403.778   1.215 -999.250 -999.250 -999.250 -999.250 -999.250   8.563   1.558   0.793
2215.9000 556.706   1.482 403.875   1.190 -999.250 -999.250 -999.250 -999.250 -999.250   8.578   1.561   0.870
2216.0000 556.953   1.498 403.898   1.154 -999.250 -999.250 -999.250 -999.250 -999.250   8.701   1.544   0.952
2216.1000 557.040   1.511 403.875   1.144 -999.250 -999.250 -999.250 -999.250 -999.250   9.036   1.529   1.030
2216.2000 557.007   1.488 403.747   1.159 -999.250 -999.250 -999.250 -999.250 -999.250   9.015   1.514   1.098
2216.3000 557.172   1.450 403.644   1.184 -999.250 -999.250 -999.250 -999.250 -999.250   8.999   1.502   1.151
2216.4000 557.072   1.384 403.491   1.252 -999.250 -999.250 -999.250 -999.250 -999.250   9.024   1.474   1.189
2216.5000 556.979   1.356 403.441   1.296 -999.250 -999.250 -999.250 -999.250 -999.250   8.792   1.468   1.217
2216.6000 556.730   1.415 403.389   1.477 -999.250 -999.250 -999.250 -999.250 -999.250   8.893   1.464   1.236
2216.7000 556.624   1.502 403.385   1.613 -999.250 -999.250 -999.250 -999.250 -999.250   8.846   1.447   1.255
2216.8000 556.413   1.647 403.371   1.839 -999.250 -999.250 -999.250 -999.250 -999.250   8.485   1.450   1.278
2216.9000 556.252   1.705 403.361   1.929 -999.250 -999.250 -999.250 -999.250 -999.250   8.010   1.435   1.319
2217.0000 556.236   1.758 403.254   1.979 -999.250 -999.250 -999.250 -999.250 -999.250   7.759   1.462   1.380
2217.1000 556.261   1.753 403.157   1.940 -999.250 -999.250 -999.250 -999.250 -999.250   8.173   1.489   1.461
2217.2000 556.566   1.611 402.981   1.760 -999.250 -999.250 -999.250 -999.250 -999.250   8.591   1.558   1.557
2217.3000 557.244   1.473 402.902   1.620 -999.250 -999.250 -999.250 -999.250 -999.250   8.889   1.642   1.657
2217.4000 557.177   1.359 402.798   1.570 -999.250 -999.250 -999.250 -999.250 -999.250   8.780   1.700   1.740
2217.5000 557.049   1.382 402.773   1.660 -999.250 -999.250 -999.250 -999.250 -999.250   8.319   1.705   1.792
2217.6000 556.785   1.497 402.785   1.994 -999.250 -999.250 -999.250 -999.250 -999.250   7.570   1.654   1.812
2217.7000 556.411   1.590 402.821   2.237 -999.250 -999.250 -999.250 -999.250 -999.250   6.671   1.591   1.812
2217.8000 556.063   1.667 402.932   2.514 -999.250 -999.250 -999.250 -999.250 -999.250   6.181   1.567   1.819
2217.9000 555.768   1.652 403.007   2.548 -999.250 -999.250 -999.250 -999.250 -999.250   6.294   1.573   1.851
2218.0000 555.547   1.614 403.238   2.320 -999.250 -999.250 -999.250 -999.250 -999.250   6.544   1.611   1.917
2218.1000 555.643   1.550 403.394   2.059 -999.250 -999.250 -999.250 -999.250 -999.250   6.563   1.654   2.011
2218.2000 555.674   1.486 403.544   1.579 -999.250 -999.250 -999.250 -999.250 -999.250   6.887   1.695   2.110
2218.3000 555.750   1.448 403.537   1.293 -999.250 -999.250 -999.250 -999.250 -999.250   7.225   1.729   2.174
2218.4000 555.930   1.452 403.513   1.007 -999.250 -999.250 -999.250 -999.250 -999.250   7.512   1.715   2.183
2218.5000 556.597   1.456 403.464   0.939 -999.250 -999.250 -999.250 -999.250 -999.250   7.310   1.673   2.122
2218.6000 557.125   1.448 403.416   0.939 -999.250 -999.250 -999.250 -999.250 -999.250   7.115   1.664   1.999
2218.7000 557.001   1.426 403.272   0.945 -999.250 -999.250 -999.250 -999.250 -999.250   6.879   1.618   1.827
2218.8000 556.866   1.404 403.158   0.950 -999.250 -999.250 -999.250 -999.250 -999.250   6.917   1.561   1.634
2218.9000 556.997   1.403 403.044   0.942 -999.250 -999.250 -999.250 -999.250 -999.250   6.976   1.525   1.440
2219.0000 556.658   1.416 402.993   0.928 -999.250 -999.250 -999.250 -999.250 -999.250   7.154   1.498   1.267
2219.1000 556.716   1.430 402.883   0.917 -999.250 -999.250 -999.250 -999.250 -999.250   7.325   1.483   1.121
2219.2000 556.256   1.431 402.773   0.918 -999.250 -999.250 -999.250 -999.250 -999.250   7.384   1.475   1.009
2219.3000 555.616   1.433 402.863   0.881 -999.250 -999.250 -999.250 -999.250 -999.250   7.391   1.472   0.929
2219.4000 555.457   1.433 403.011   0.842 -999.250 -999.250 -999.250 -999.250 -999.250   7.260   1.493   0.878
2219.5000 555.021   1.425 403.228   0.827 -999.250 -999.250 -999.250 -999.250 -999.250   7.076   1.514   0.849
2219.6000 555.083   1.416 403.297   0.852 -999.250 -999.250 -999.250 -999.250 -999.250   7.096   1.537   0.833
2219.7000 555.423   1.340 403.486   0.928 -999.250 -999.250 -999.250 -999.250 -999.250   7.458   1.555   0.825
2219.8000 555.604   1.273 403.607   0.980 -999.250 -999.250 -999.250 -999.250 -999.250   7.469   1.549   0.828
2219.9000 555.773   1.220 403.810   1.383 -999.250 -999.250 -999.250 -999.250 -999.250   7.820   1.519   0.835
2220.0000 555.873   1.233 403.892   1.733 -999.250 -999.250 -999.250 -999.250 -999.250   7.506   1.446   0.855
2220.1000 555.814   1.329 403.873   2.494 -999.250 -999.250 -999.250 -999.250 -999.250   6.878   1.374   0.898
2220.2000 555.474   1.412 403.772   2.904 -999.250 -999.250 -999.250 -999.250 -999.250   6.827   1.308   0.996
2220.3000 555.485   1.478 403.528   3.289 -999.250 -999.250 -999.250 -999.250 -999.250   6.406   1.276   1.165
2220.4000 555.507   1.462 403.385   3.263 -999.250 -999.250 -999.250 -999.250 -999.250   6.072   1.318   1.413
2220.5000 556.337   1.418 403.042   2.793 -999.250 -999.250 -999.250 -999.250 -999.250   6.034   1.353   1.723
2220.6000 556.302   1.391 402.841   2.348 -999.250 -999.250 -999.250 -999.250 -999.250   6.284   1.395   2.058
2220.7000 557.249   1.355 402.558   1.721 -999.250 -999.250 -999.250 -999.250 -999.250   6.445   1.429   2.365
2220.8000 557.660   1.346 402.477   1.538 -999.250 -999.250 -999.250 -999.250 -999.250   6.982   1.455   2.587
2220.9000 558.448   1.321 402.375   1.267 -999.250 -999.250 -999.250 -999.250 -999.250   7.131   1.473   2.695
2221.0000 558.307   1.305 402.354   1.122 -999.250 -999.250 -999.250 -999.250 -999.250   7.357   1.464   2.684
