~Version Information
VERS.                     2.0 : CWLS Log ASCII Standart
WRAP.                     NO  : One line per depth step
~Well Information
STRT.M                      2020.3000  : Start Depth
STOP.M                      3250.0000  : Stop Depth
STEP.M                         0.1000  : Step
NULL.                         -999.25  : Null Value
COMP.      ООО"Кубаньгазпром"          : Company
WELL.      2р                          : Well
FLD .      Восточно-Прибрежная         : Field
LOC .                                  : Location
PROV.                                  : Province
SRVC.      ПФ"Кубаньгазгеофизика"      : Service Company
DATE.      3.01.2004 г                 : Log Date
UWI .                                  : Unique Well ID
~Curve Information
DEPT.M                                 :
ПСст.мВ                                :
N11М31.12                              :
ПС31.12                                :
А2  .                                  :
ПСст.мВ                                :
ПСст.мВ                                :
ПСст.мВ                                :
ПСст.мВ                                :
ПСст.мВ                                :
ГК4 .                                  :
N11M3.                                 :
A2M3.                                  :
~Other information
  Забой,м: 2572
  КОЛОННА.   Диаметр,мм: 514; 304
  Башмак,м: 25; 1108
  Раствор (тип): глинистый
  Удельный вес, г/см3: 1.5
  Вязкость,с: 40
  УЭС р-ра,Омм 1.4  t=12град
  Эталонировки:
  ГК:1мкР/ч= 240 имп/мин
~ASCII Log Data
# ...
2286.8000 559.286   2.048 403.148   1.264 -999.250 -999.250 -999.250 -999.250 -999.250   6.065   1.853   2.514
2286.9000 560.030   2.081 403.164   1.125 -999.250 -999.250 -999.250 -999.250 -999.250   5.411   1.943   2.390
2287.0000 560.706   2.079 403.144   0.901 -999.250 -999.250 -999.250 -999.250 -999.250   5.353   2.023   2.228
2287.1000 560.897   2.044 403.108   0.816 -999.250 -999.250 -999.250 -999.250 -999.250   5.182   2.108   2.033
2287.2000 561.187   1.967 402.826   0.703 -999.250 -999.250 -999.250 -999.250 -999.250   5.287   2.194   1.819
2287.3000 561.341   1.927 402.581   0.674 -999.250 -999.250 -999.250 -999.250 -999.250   5.199   2.264   1.598
2287.4000 561.703   1.894 402.144   0.694 -999.250 -999.250 -999.250 -999.250 -999.250   4.877   2.317   1.382
2287.5000 562.254   1.901 401.952   0.743 -999.250 -999.250 -999.250 -999.250 -999.250   4.672   2.314   1.180
2287.6000 562.528   1.908 401.810   0.900 -999.250 -999.250 -999.250 -999.250 -999.250   4.930   2.277   1.005
2287.7000 562.853   1.909 401.861   1.009 -999.250 -999.250 -999.250 -999.250 -999.250   5.317   2.229   0.867
2287.8000 562.327   1.910 401.934   1.205 -999.250 -999.250 -999.250 -999.250 -999.250   6.195   2.162   0.772
2287.9000 561.870   1.802 401.958   1.292 -999.250 -999.250 -999.250 -999.250 -999.250   6.827   2.102   0.728
2288.0000 561.348   1.693 401.981   1.485 -999.250 -999.250 -999.250 -999.250 -999.250   7.255   2.092   0.734
2288.1000 560.931   1.561 402.308   1.591 -999.250 -999.250 -999.250 -999.250 -999.250   7.473   2.055   0.783
2288.2000 560.483   1.537 402.636   1.697 -999.250 -999.250 -999.250 -999.250 -999.250   7.586   2.011   0.865
2288.3000 560.631   1.653 403.290   1.925 -999.250 -999.250 -999.250 -999.250 -999.250   7.994   1.949   0.969
2288.4000 560.494   1.792 403.616   2.154 -999.250 -999.250 -999.250 -999.250 -999.250   8.322   1.894   1.094
2288.5000 560.569   1.999 404.146   2.620 -999.250 -999.250 -999.250 -999.250 -999.250   7.987   1.828   1.236
2288.6000 560.368   2.068 404.349   2.858 -999.250 -999.250 -999.250 -999.250 -999.250   7.805   1.795   1.398
2288.7000 560.318   2.100 404.624   2.998 -999.250 -999.250 -999.250 -999.250 -999.250   7.938   1.772   1.586
2288.8000 560.376   2.063 404.696   2.900 -999.250 -999.250 -999.250 -999.250 -999.250   7.579   1.802   1.805
2288.9000 560.721   2.019 404.524   2.478 -999.250 -999.250 -999.250 -999.250 -999.250   7.590   1.879   2.042
2289.0000 560.582   2.012 404.280   2.153 -999.250 -999.250 -999.250 -999.250 -999.250   7.265   1.979   2.276
2289.1000 560.679   2.004 403.648   1.727 -999.250 -999.250 -999.250 -999.250 -999.250   6.898   2.054   2.476
2289.2000 560.707   1.937 403.262   1.625 -999.250 -999.250 -999.250 -999.250 -999.250   6.390   2.094   2.604
2289.3000 560.762   1.869 402.556   1.520 -999.250 -999.250 -999.250 -999.250 -999.250   5.942   2.114   2.646
2289.4000 561.415   1.735 402.236   1.518 -999.250 -999.250 -999.250 -999.250 -999.250   6.015   2.138   2.599
2289.5000 561.692   1.669 401.917   1.447 -999.250 -999.250 -999.250 -999.250 -999.250   5.806   2.135   2.483
2289.6000 561.958   1.583 401.734   1.379 -999.250 -999.250 -999.250 -999.250 -999.250   5.750   2.128   2.323
2289.7000 561.600   1.564 401.550   1.333 -999.250 -999.250 -999.250 -999.250 -999.250   6.173   2.096   2.145
2289.8000 561.311   1.547 401.222   1.355 -999.250 -999.250 -999.250 -999.250 -999.250   6.216   2.025   1.973
2289.9000 560.968   1.548 401.078   1.385 -999.250 -999.250 -999.250 -999.250 -999.250   6.376   1.956   1.815
2290.0000 561.189   1.547 400.898   1.392 -999.250 -999.250 -999.250 -999.250 -999.250   6.634   1.853   1.683
2290.1000 560.853   1.544 400.862   1.326 -999.250 -999.250 -999.250 -999.250 -999.250   6.995   1.785   1.580
2290.2000 560.214   1.543 400.872   1.252 -999.250 -999.250 -999.250 -999.250 -999.250   7.411   1.750   1.507
2290.3000 559.778   1.545 400.917   1.139 -999.250 -999.250 -999.250 -999.250 -999.250   7.294   1.716   1.457
2290.4000 559.409   1.561 401.266   1.100 -999.250 -999.250 -999.250 -999.250 -999.250   7.199   1.696   1.423
2290.5000 559.415   1.575 401.570   1.061 -999.250 -999.250 -999.250 -999.250 -999.250   6.698   1.662   1.395
2290.6000 559.508   1.631 402.007   1.106 -999.250 -999.250 -999.250 -999.250 -999.250   6.434   1.656   1.362
2290.7000 559.551   1.672 402.141   1.151 -999.250 -999.250 -999.250 -999.250 -999.250   6.452   1.653   1.324
2290.8000 559.470   1.693 402.224   1.270 -999.250 -999.250 -999.250 -999.250 -999.250   6.456   1.677   1.288
2290.9000 559.247   1.672 402.174   1.343 -999.250 -999.250 -999.250 -999.250 -999.250   6.288   1.702   1.262
2291.0000 559.139   1.611 402.077   1.428 -999.250 -999.250 -999.250 -999.250 -999.250   6.774   1.708   1.250
2291.1000 559.293   1.572 402.029   1.439 -999.250 -999.250 -999.250 -999.250 -999.250   6.695   1.749   1.252
2291.2000 559.245   1.532 401.700   1.549 -999.250 -999.250 -999.250 -999.250 -999.250   6.878   1.784   1.273
2291.3000 559.343   1.533 401.419   1.648 -999.250 -999.250 -999.250 -999.250 -999.250   6.622   1.779   1.310
2291.4000 559.286   1.533 401.027   1.893 -999.250 -999.250 -999.250 -999.250 -999.250   6.296   1.766   1.361
2291.5000 559.609   1.532 400.917   2.039 -999.250 -999.250 -999.250 -999.250 -999.250   6.051   1.726   1.417
2291.6000 559.665   1.513 400.953   2.270 -999.250 -999.250 -999.250 -999.250 -999.250   5.712   1.667   1.480
2291.7000 559.733   1.494 401.100   2.355 -999.250 -999.250 -999.250 -999.250 -999.250   6.044   1.651   1.551
2291.8000 559.860   1.484 401.228   2.326 -999.250 -999.250 -999.250 -999.250 -999.250   6.193   1.642   1.639
2291.9000 559.729   1.493 401.209   2.211 -999.250 -999.250 -999.250 -999.250 -999.250   6.748   1.645   1.750
2292.0000 559.831   1.502 401.175   2.096 -999.250 -999.250 -999.250 -999.250 -999.250   6.641   1.652   1.876
2292.1000 559.784   1.516 401.160   1.958 -999.250 -999.250 -999.250 -999.250 -999.250   6.867   1.640   2.005
2292.2000 560.010   1.529 401.003   1.821 -999.250 -999.250 -999.250 -999.250 -999.250   6.807   1.648   2.118
2292.3000 559.969   1.517 400.861   1.634 -999.250 -999.250 -999.250 -999.250 -999.250   6.815   1.654   2.201
2292.4000 559.691   1.492 400.719   1.584 -999.250 -999.250 -999.250 -999.250 -999.250   7.195   1.682   2.243
2292.5000 560.107   1.446 400.514   1.459 -999.250 -999.250 -999.250 -999.250 -999.250   7.390   1.669   2.240
2292.6000 560.039   1.425 400.308   1.385 -999.250 -999.250 -999.250 -999.250 -999.250   7.398   1.655   2.193
2292.7000 560.272   1.425 400.010   1.279 -999.250 -999.250 -999.250 -999.250 -999.250   7.005   1.636   2.112
2292.8000 560.053   1.445 399.918   1.248 -999.250 -999.250 -999.250 -999.250 -999.250   6.647   1.619   2.007
2292.9000 559.970   1.438 399.763   1.217 -999.250 -999.250 -999.250 -999.250 -999.250   6.422   1.604   1.888
2293.0000 559.717   1.411 399.700   1.218 -999.250 -999.250 -999.250 -999.250 -999.250   6.258   1.614   1.763
2293.1000 559.509   1.388 399.805   1.159 -999.250 -999.250 -999.250 -999.250 -999.250   6.588   1.607   1.646
2293.2000 559.563   1.393 399.972   1.099 -999.250 -999.250 -999.250 -999.250 -999.250   7.163   1.603   1.541
2293.3000 559.422   1.415 400.252   1.041 -999.250 -999.250 -999.250 -999.250 -999.250   7.409   1.577   1.448
2293.4000 559.445   1.433 400.365   1.043 -999.250 -999.250 -999.250 -999.250 -999.250   7.613   1.572   1.366
2293.5000 559.211   1.444 400.649   1.064 -999.250 -999.250 -999.250 -999.250 -999.250   7.649   1.569   1.294
2293.6000 558.758   1.437 400.821   1.083 -999.250 -999.250 -999.250 -999.250 -999.250   7.740   1.570   1.232
2293.7000 558.301   1.443 401.195   1.113 -999.250 -999.250 -999.250 -999.250 -999.250   7.981   1.572   1.180
2293.8000 557.891   1.457 401.398   1.124 -999.250 -999.250 -999.250 -999.250 -999.250   7.955   1.556   1.144
2293.9000 557.571   1.482 401.666   1.152 -999.250 -999.250 -999.250 -999.250 -999.250   7.897   1.558   1.122
2294.0000 557.342   1.494 401.731   1.168 -999.250 -999.250 -999.250 -999.250 -999.250   7.874   1.561   1.121
