~Version Information
VERS.                     2.0 : CWLS Log ASCII Standart
WRAP.                     NO  : One line per depth step
~Well Information
STRT.M                      2020.3000  : Start Depth
STOP.M                      3250.0000  : Stop Depth
STEP.M                         0.1000  : Step
NULL.                         -999.25  : Null Value
COMP.      ООО"Кубаньгазпром"          : Company
WELL.      2р                          : Well
FLD .      Восточно-Прибрежная         : Field
LOC .                                  : Location
PROV.                                  : Province
SRVC.      ПФ"Кубаньгазгеофизика"      : Service Company
DATE.      3.01.2004 г                 : Log Date
UWI .                                  : Unique Well ID
~Curve Information
DEPT.M                                 :
ПСст.мВ                                :
N11М31.12                              :
ПС31.12                                :
А2  .                                  :
ПСст.мВ                                :
ПСст.мВ                                :
ПСст.мВ                                :
ПСст.мВ                                :
ПСст.мВ                                :
ГК4 .                                  :
N11M3.                                 :
A2M3.                                  :
~Other information
  Забой,м: 2572
  КОЛОННА.   Диаметр,мм: 514; 304
  Башмак,м: 25; 1108
  Раствор (тип): глинистый
  Удельный вес, г/см3: 1.5
  Вязкость,с: 40
  УЭС р-ра,Омм 1.4  t=12град
  Эталонировки:
  ГК:1мкР/ч= 240 имп/мин
~ASCII Log Data
# ...
2308.7000 558.984   1.192 401.060   1.014 -999.250 -999.250 -999.250 -999.250 -999.250   7.331   1.225   1.011
2308.8000 559.590   1.200 401.099   1.038 -999.250 -999.250 -999.250 -999.250 -999.250   7.186   1.221   1.035
2308.9000 559.515   1.181 401.172   1.051 -999.250 -999.250 -999.250 -999.250 -999.250   6.977   1.218   1.053
2309.0000 559.643   1.154 401.206   1.060 -999.250 -999.250 -999.250 -999.250 -999.250   6.967   1.230   1.068
2309.1000 559.527   1.149 401.182   1.056 -999.250 -999.250 -999.250 -999.250 -999.250   7.189   1.243   1.078
2309.2000 559.426   1.171 401.124   1.059 -999.250 -999.250 -999.250 -999.250 -999.250   7.049   1.257   1.081
2309.3000 559.053   1.175 400.963   1.067 -999.250 -999.250 -999.250 -999.250 -999.250   6.822   1.249   1.078
2309.4000 558.949   1.157 400.860   1.053 -999.250 -999.250 -999.250 -999.250 -999.250   7.157   1.238   1.072
2309.5000 558.865   1.113 400.676   1.031 -999.250 -999.250 -999.250 -999.250 -999.250   7.093   1.224   1.066
2309.6000 558.733   1.087 400.595   1.018 -999.250 -999.250 -999.250 -999.250 -999.250   7.185   1.212   1.067
2309.7000 558.992   1.052 400.401   1.021 -999.250 -999.250 -999.250 -999.250 -999.250   6.791   1.203   1.071
2309.8000 559.268   1.043 400.289   1.025 -999.250 -999.250 -999.250 -999.250 -999.250   6.705   1.176   1.077
2309.9000 559.076   1.050 400.154   1.020 -999.250 -999.250 -999.250 -999.250 -999.250   6.474   1.171   1.083
2310.0000 559.203   1.065 400.131   1.016 -999.250 -999.250 -999.250 -999.250 -999.250   6.487   1.168   1.085
2310.1000 559.151   1.075 400.203   1.012 -999.250 -999.250 -999.250 -999.250 -999.250   6.751   1.151   1.089
2310.2000 559.508   1.070 400.298   1.014 -999.250 -999.250 -999.250 -999.250 -999.250   6.993   1.155   1.096
2310.3000 559.839   1.049 400.437   1.020 -999.250 -999.250 -999.250 -999.250 -999.250   6.943   1.139   1.106
2310.4000 560.057   1.033 400.481   1.022 -999.250 -999.250 -999.250 -999.250 -999.250   7.250   1.147   1.115
2310.5000 561.191   1.014 400.490   1.018 -999.250 -999.250 -999.250 -999.250 -999.250   7.437   1.134   1.126
2310.6000 560.902   1.009 400.455   1.015 -999.250 -999.250 -999.250 -999.250 -999.250   7.548   1.104   1.133
2310.7000 560.445   1.036 400.318   1.016 -999.250 -999.250 -999.250 -999.250 -999.250   7.769   1.113   1.137
2310.8000 559.516   1.066 400.216   1.021 -999.250 -999.250 -999.250 -999.250 -999.250   7.818   1.124   1.131
2310.9000 559.014   1.059 400.160   1.023 -999.250 -999.250 -999.250 -999.250 -999.250   7.672   1.121   1.123
2311.0000 559.096   1.022 400.206   1.021 -999.250 -999.250 -999.250 -999.250 -999.250   7.317   1.116   1.108
2311.1000 559.119   0.983 400.252   1.016 -999.250 -999.250 -999.250 -999.250 -999.250   7.392   1.129   1.097
2311.2000 559.364   0.982 400.253   1.024 -999.250 -999.250 -999.250 -999.250 -999.250   7.347   1.123   1.089
2311.3000 559.470   1.005 400.348   1.036 -999.250 -999.250 -999.250 -999.250 -999.250   7.474   1.118   1.084
2311.4000 559.572   1.029 400.442   1.044 -999.250 -999.250 -999.250 -999.250 -999.250   7.586   1.110   1.082
2311.5000 559.871   1.067 400.700   1.039 -999.250 -999.250 -999.250 -999.250 -999.250   7.533   1.103   1.086
2311.6000 559.655   1.082 400.864   1.034 -999.250 -999.250 -999.250 -999.250 -999.250   7.461   1.098   1.091
2311.7000 559.912   1.104 401.081   1.034 -999.250 -999.250 -999.250 -999.250 -999.250   7.477   1.094   1.097
2311.8000 559.740   1.112 401.135   1.021 -999.250 -999.250 -999.250 -999.250 -999.250   7.477   1.091   1.101
2311.9000 559.734   1.121 401.347   1.009 -999.250 -999.250 -999.250 -999.250 -999.250   7.692   1.109   1.100
2312.0000 559.554   1.122 401.505   0.994 -999.250 -999.250 -999.250 -999.250 -999.250   8.111   1.109   1.096
2312.1000 559.654   1.128 401.619   0.990 -999.250 -999.250 -999.250 -999.250 -999.250   7.866   1.108   1.087
2312.2000 560.126   1.133 401.573   0.980 -999.250 -999.250 -999.250 -999.250 -999.250   7.569   1.124   1.074
2312.3000 560.017   1.132 401.419   0.974 -999.250 -999.250 -999.250 -999.250 -999.250   7.144   1.140   1.059
2312.4000 559.765   1.125 401.310   0.931 -999.250 -999.250 -999.250 -999.250 -999.250   7.392   1.157   1.043
2312.5000 559.911   1.088 400.964   0.894 -999.250 -999.250 -999.250 -999.250 -999.250   7.580   1.169   1.028
2312.6000 559.710   1.058 400.727   0.865 -999.250 -999.250 -999.250 -999.250 -999.250   7.725   1.179   1.014
2312.7000 559.805   1.028 400.124   0.873 -999.250 -999.250 -999.250 -999.250 -999.250   7.580   1.166   1.007
2312.8000 559.255   1.029 399.758   0.890 -999.250 -999.250 -999.250 -999.250 -999.250   7.663   1.170   1.003
2312.9000 559.855   1.014 399.278   0.900 -999.250 -999.250 -999.250 -999.250 -999.250   7.478   1.152   0.998
2313.0000 559.572   0.998 399.163   0.898 -999.250 -999.250 -999.250 -999.250 -999.250   7.311   1.157   0.997
2313.1000 560.016   0.988 399.069   0.888 -999.250 -999.250 -999.250 -999.250 -999.250   7.608   1.141   0.992
2313.2000 559.724   0.994 399.090   0.876 -999.250 -999.250 -999.250 -999.250 -999.250   7.595   1.148   0.989
2313.3000 559.858   1.009 399.312   0.874 -999.250 -999.250 -999.250 -999.250 -999.250   7.997   1.155   0.982
2313.4000 559.903   1.018 399.514   0.860 -999.250 -999.250 -999.250 -999.250 -999.250   8.004   1.125   0.971
2313.5000 560.007   1.033 399.899   0.848 -999.250 -999.250 -999.250 -999.250 -999.250   8.305   1.113   0.962
2313.6000 560.207   1.038 400.083   0.861 -999.250 -999.250 -999.250 -999.250 -999.250   8.505   1.080   0.956
2313.7000 559.905   1.037 400.388   0.885 -999.250 -999.250 -999.250 -999.250 -999.250   8.228   1.073   0.953
2313.8000 559.829   1.032 400.510   0.893 -999.250 -999.250 -999.250 -999.250 -999.250   7.846   1.069   0.955
2313.9000 559.219   1.024 400.695   0.877 -999.250 -999.250 -999.250 -999.250 -999.250   7.738   1.071   0.959
2314.0000 559.287   1.022 400.758   0.864 -999.250 -999.250 -999.250 -999.250 -999.250   7.726   1.074   0.965
2314.1000 559.123   1.024 400.780   0.866 -999.250 -999.250 -999.250 -999.250 -999.250   7.715   1.078   0.968
2314.2000 558.957   1.026 400.737   0.893 -999.250 -999.250 -999.250 -999.250 -999.250   7.965   1.082   0.970
2314.3000 559.149   1.051 400.675   0.917 -999.250 -999.250 -999.250 -999.250 -999.250   8.116   1.085   0.976
2314.4000 559.249   1.072 400.655   0.943 -999.250 -999.250 -999.250 -999.250 -999.250   7.682   1.068   0.981
2314.5000 559.506   1.080 400.631   0.945 -999.250 -999.250 -999.250 -999.250 -999.250   7.743   1.069   0.988
2314.6000 559.232   1.067 400.626   0.953 -999.250 -999.250 -999.250 -999.250 -999.250   7.770   1.070   0.993
2314.7000 559.431   1.033 400.585   0.959 -999.250 -999.250 -999.250 -999.250 -999.250   7.626   1.095   1.000
2314.8000 559.578   1.011 400.548   0.952 -999.250 -999.250 -999.250 -999.250 -999.250   7.455   1.119   1.006
2314.9000 559.657   0.997 400.625   0.937 -999.250 -999.250 -999.250 -999.250 -999.250   7.167   1.122   1.007
2315.0000 560.189   1.004 400.739   0.920 -999.250 -999.250 -999.250 -999.250 -999.250   7.057   1.141   1.005
2315.1000 560.199   1.011 400.945   0.918 -999.250 -999.250 -999.250 -999.250 -999.250   6.787   1.116   1.000
2315.2000 559.946   1.027 401.038   0.945 -999.250 -999.250 -999.250 -999.250 -999.250   7.244   1.109   0.992
2315.3000 559.833   1.046 401.242   0.975 -999.250 -999.250 -999.250 -999.250 -999.250   7.237   1.119   0.984
2315.4000 559.719   1.065 401.352   0.986 -999.250 -999.250 -999.250 -999.250 -999.250   7.317   1.094   0.977
2315.5000 559.778   1.074 401.463   0.966 -999.250 -999.250 -999.250 -999.250 -999.250   7.509   1.090   0.973
2315.6000 559.613   1.080 401.567   0.963 -999.250 -999.250 -999.250 -999.250 -999.250   7.996   1.084   0.975
2315.7000 559.348   1.086 401.686   0.979 -999.250 -999.250 -999.250 -999.250 -999.250   7.886   1.083   0.980
2315.8000 559.564   1.081 401.805   0.996 -999.250 -999.250 -999.250 -999.250 -999.250   8.017   1.064   0.990
2315.9000 559.690   1.076 401.818   0.997 -999.250 -999.250 -999.250 -999.250 -999.250   7.798   1.065   1.004
