~Version Information
VERS.                     2.0 : CWLS Log ASCII Standart
WRAP.                     NO  : One line per depth step
~Well Information
STRT.M                      2020.3000  : Start Depth
STOP.M                      3250.0000  : Stop Depth
STEP.M                         0.1000  : Step
NULL.                         -999.25  : Null Value
COMP.      ООО"Кубаньгазпром"          : Company
WELL.      2р                          : Well
FLD .      Восточно-Прибрежная         : Field
LOC .                                  : Location
PROV.                                  : Province
SRVC.      ПФ"Кубаньгазгеофизика"      : Service Company
DATE.      3.01.2004 г                 : Log Date
UWI .                                  : Unique Well ID
~Curve Information
DEPT.M                                 :
ПСст.мВ                                :
N11М31.12                              :
ПС31.12                                :
А2  .                                  :
ПСст.мВ                                :
ПСст.мВ                                :
ПСст.мВ                                :
ПСст.мВ                                :
ПСст.мВ                                :
ГК4 .                                  :
N11M3.                                 :
A2M3.                                  :
~Other information
  Забой,м: 2572
  КОЛОННА.   Диаметр,мм: 514; 304
  Башмак,м: 25; 1108
  Раствор (тип): глинистый
  Удельный вес, г/см3: 1.5
  Вязкость,с: 40
  УЭС р-ра,Омм 1.4  t=12град
  Эталонировки:
  ГК:1мкР/ч= 240 имп/мин
~ASCII Log Data
# ...
2374.4000 563.856   1.092 401.750   0.941 -999.250 -999.250 -999.250 -999.250 -999.250   8.184   1.133   1.034
2374.5000 563.321   1.104 401.802   0.933 -999.250 -999.250 -999.250 -999.250 -999.250   8.144   1.119   1.038
2374.6000 562.873   1.135 401.806   0.920 -999.250 -999.250 -999.250 -999.250 -999.250   8.294   1.131   1.036
2374.7000 562.644   1.155 401.758   0.915 -999.250 -999.250 -999.250 -999.250 -999.250   8.213   1.122   1.031
2374.8000 562.769   1.197 401.814   0.911 -999.250 -999.250 -999.250 -999.250 -999.250   8.186   1.116   1.022
2374.9000 562.983   1.219 401.918   0.913 -999.250 -999.250 -999.250 -999.250 -999.250   7.954   1.108   1.012
2375.0000 562.872   1.279 402.138   0.915 -999.250 -999.250 -999.250 -999.250 -999.250   7.955   1.122   0.999
2375.1000 563.231   1.316 402.254   0.900 -999.250 -999.250 -999.250 -999.250 -999.250   7.715   1.156   0.988
2375.2000 563.423   1.397 402.406   0.882 -999.250 -999.250 -999.250 -999.250 -999.250   7.788   1.231   0.979
2375.3000 563.760   1.441 402.442   0.877 -999.250 -999.250 -999.250 -999.250 -999.250   7.981   1.264   0.973
2375.4000 563.779   1.481 402.563   0.890 -999.250 -999.250 -999.250 -999.250 -999.250   8.552   1.271   0.971
2375.5000 564.377   1.477 402.648   0.932 -999.250 -999.250 -999.250 -999.250 -999.250   9.002   1.302   0.971
2375.6000 564.414   1.460 402.706   0.961 -999.250 -999.250 -999.250 -999.250 -999.250   9.167   1.326   0.974
2375.7000 564.570   1.447 402.678   1.022 -999.250 -999.250 -999.250 -999.250 -999.250   8.913   1.369   0.981
2375.8000 564.606   1.366 402.664   1.054 -999.250 -999.250 -999.250 -999.250 -999.250   8.691   1.406   0.993
2375.9000 564.882   1.299 402.678   1.094 -999.250 -999.250 -999.250 -999.250 -999.250   8.924   1.418   1.012
2376.0000 564.510   1.209 402.674   1.102 -999.250 -999.250 -999.250 -999.250 -999.250   8.715   1.461   1.037
2376.1000 564.501   1.187 402.656   1.162 -999.250 -999.250 -999.250 -999.250 -999.250   8.751   1.476   1.066
2376.2000 564.190   1.162 402.385   1.215 -999.250 -999.250 -999.250 -999.250 -999.250   8.928   1.470   1.100
2376.3000 564.447   1.160 402.131   1.355 -999.250 -999.250 -999.250 -999.250 -999.250   8.706   1.416   1.136
2376.4000 564.212   1.148 401.686   1.443 -999.250 -999.250 -999.250 -999.250 -999.250   8.018   1.358   1.177
2376.5000 564.039   1.138 401.494   1.560 -999.250 -999.250 -999.250 -999.250 -999.250   7.645   1.302   1.226
2376.6000 563.692   1.124 401.076   1.588 -999.250 -999.250 -999.250 -999.250 -999.250   7.600   1.237   1.283
2376.7000 563.515   1.120 400.849   1.468 -999.250 -999.250 -999.250 -999.250 -999.250   7.643   1.203   1.349
2376.8000 563.496   1.116 400.489   1.319 -999.250 -999.250 -999.250 -999.250 -999.250   7.735   1.220   1.414
2376.9000 563.546   1.119 400.354   1.104 -999.250 -999.250 -999.250 -999.250 -999.250   7.804   1.230   1.466
2377.0000 563.138   1.122 400.354   1.039 -999.250 -999.250 -999.250 -999.250 -999.250   7.786   1.227   1.496
2377.1000 563.104   1.142 400.490   0.944 -999.250 -999.250 -999.250 -999.250 -999.250   7.727   1.221   1.495
2377.2000 563.307   1.158 400.625   0.914 -999.250 -999.250 -999.250 -999.250 -999.250   7.552   1.232   1.462
2377.3000 563.222   1.184 400.732   0.862 -999.250 -999.250 -999.250 -999.250 -999.250   7.412   1.225   1.402
2377.4000 562.772   1.193 400.840   0.840 -999.250 -999.250 -999.250 -999.250 -999.250   7.754   1.218   1.325
2377.5000 562.776   1.224 401.007   0.824 -999.250 -999.250 -999.250 -999.250 -999.250   8.033   1.229   1.235
2377.6000 562.674   1.246 401.066   0.829 -999.250 -999.250 -999.250 -999.250 -999.250   8.238   1.202   1.141
2377.7000 562.662   1.270 401.195   0.853 -999.250 -999.250 -999.250 -999.250 -999.250   8.589   1.216   1.053
2377.8000 562.895   1.273 401.265   0.872 -999.250 -999.250 -999.250 -999.250 -999.250   8.530   1.228   0.975
2377.9000 562.409   1.265 401.283   0.915 -999.250 -999.250 -999.250 -999.250 -999.250   8.596   1.264   0.910
2378.0000 562.788   1.255 401.232   0.940 -999.250 -999.250 -999.250 -999.250 -999.250   8.684   1.298   0.871
2378.1000 562.998   1.236 401.195   0.987 -999.250 -999.250 -999.250 -999.250 -999.250   8.847   1.330   0.853
2378.2000 563.305   1.228 401.209   1.011 -999.250 -999.250 -999.250 -999.250 -999.250   9.185   1.354   0.855
2378.3000 563.412   1.215 401.283   1.034 -999.250 -999.250 -999.250 -999.250 -999.250   8.971   1.372   0.871
2378.4000 563.478   1.212 401.344   1.035 -999.250 -999.250 -999.250 -999.250 -999.250   9.120   1.363   0.894
2378.5000 563.236   1.194 401.360   1.049 -999.250 -999.250 -999.250 -999.250 -999.250   9.296   1.350   0.923
2378.6000 562.849   1.179 401.316   1.063 -999.250 -999.250 -999.250 -999.250 -999.250   9.026   1.333   0.955
2378.7000 562.448   1.152 401.352   1.103 -999.250 -999.250 -999.250 -999.250 -999.250   9.035   1.318   0.988
2378.8000 562.466   1.139 401.431   1.128 -999.250 -999.250 -999.250 -999.250 -999.250   8.956   1.305   1.022
2378.9000 562.439   1.126 401.503   1.138 -999.250 -999.250 -999.250 -999.250 -999.250   9.333   1.276   1.055
2379.0000 562.368   1.131 401.494   1.121 -999.250 -999.250 -999.250 -999.250 -999.250   9.213   1.270   1.088
2379.1000 562.540   1.137 401.425   1.070 -999.250 -999.250 -999.250 -999.250 -999.250   8.959   1.247   1.114
2379.2000 562.717   1.163 401.364   1.036 -999.250 -999.250 -999.250 -999.250 -999.250   8.725   1.229   1.135
2379.3000 562.786   1.183 401.303   0.971 -999.250 -999.250 -999.250 -999.250 -999.250   8.648   1.213   1.152
2379.4000 562.943   1.225 401.421   0.940 -999.250 -999.250 -999.250 -999.250 -999.250   8.580   1.182   1.161
2379.5000 562.572   1.246 401.539   0.902 -999.250 -999.250 -999.250 -999.250 -999.250   8.372   1.193   1.159
2379.6000 562.310   1.307 401.713   0.895 -999.250 -999.250 -999.250 -999.250 -999.250   8.078   1.189   1.146
2379.7000 562.510   1.347 401.769   0.888 -999.250 -999.250 -999.250 -999.250 -999.250   8.184   1.210   1.129
2379.8000 562.414   1.412 401.980   0.906 -999.250 -999.250 -999.250 -999.250 -999.250   7.964   1.248   1.111
2379.9000 562.371   1.439 402.135   0.924 -999.250 -999.250 -999.250 -999.250 -999.250   8.222   1.288   1.087
2380.0000 562.657   1.496 402.266   0.995 -999.250 -999.250 -999.250 -999.250 -999.250   7.845   1.343   1.064
2380.1000 562.840   1.527 402.242   1.048 -999.250 -999.250 -999.250 -999.250 -999.250   7.670   1.390   1.045
2380.2000 563.031   1.523 402.032   1.141 -999.250 -999.250 -999.250 -999.250 -999.250   7.851   1.449   1.033
2380.3000 563.042   1.488 401.846   1.181 -999.250 -999.250 -999.250 -999.250 -999.250   8.199   1.498   1.033
2380.4000 562.769   1.437 401.543   1.280 -999.250 -999.250 -999.250 -999.250 -999.250   8.071   1.536   1.044
2380.5000 562.705   1.420 401.425   1.340 -999.250 -999.250 -999.250 -999.250 -999.250   8.490   1.563   1.071
2380.6000 562.515   1.378 401.041   1.428 -999.250 -999.250 -999.250 -999.250 -999.250   8.501   1.581   1.115
2380.7000 562.627   1.354 400.774   1.457 -999.250 -999.250 -999.250 -999.250 -999.250   8.538   1.590   1.173
2380.8000 562.874   1.305 400.482   1.456 -999.250 -999.250 -999.250 -999.250 -999.250   8.257   1.614   1.238
2380.9000 563.037   1.280 400.457   1.427 -999.250 -999.250 -999.250 -999.250 -999.250   8.268   1.615   1.311
2381.0000 562.807   1.239 400.484   1.353 -999.250 -999.250 -999.250 -999.250 -999.250   8.572   1.614   1.378
2381.1000 563.020   1.222 400.535   1.310 -999.250 -999.250 -999.250 -999.250 -999.250   8.231   1.588   1.433
2381.2000 562.955   1.179 400.509   1.220 -999.250 -999.250 -999.250 -999.250 -999.250   8.217   1.562   1.468
2381.3000 563.306   1.153 400.430   1.175 -999.250 -999.250 -999.250 -999.250 -999.250   7.884   1.516   1.486
2381.4000 563.367   1.126 400.359   1.105 -999.250 -999.250 -999.250 -999.250 -999.250   8.408   1.456   1.484
2381.5000 563.811   1.125 400.366   1.080 -999.250 -999.250 -999.250 -999.250 -999.250   8.901   1.401   1.462
2381.6000 564.186   1.121 400.465   1.038 -999.250 -999.250 -999.250 -999.250 -999.250   8.882   1.355   1.426
