~Version Information
VERS.                     2.0 : CWLS Log ASCII Standart
WRAP.                     NO  : One line per depth step
~Well Information
STRT.M                      2020.3000  : Start Depth
STOP.M                      3250.0000  : Stop Depth
STEP.M                         0.1000  : Step
NULL.                         -999.25  : Null Value
COMP.      ООО"Кубаньгазпром"          : Company
WELL.      2р                          : Well
FLD .      Восточно-Прибрежная         : Field
LOC .                                  : Location
PROV.                                  : Province
SRVC.      ПФ"Кубаньгазгеофизика"      : Service Company
DATE.      3.01.2004 г                 : Log Date
UWI .                                  : Unique Well ID
~Curve Information
DEPT.M                                 :
ПСст.мВ                                :
N11М31.12                              :
ПС31.12                                :
А2  .                                  :
ПСст.мВ                                :
ПСст.мВ                                :
ПСст.мВ                                :
ПСст.мВ                                :
ПСст.мВ                                :
ГК4 .                                  :
N11M3.                                 :
A2M3.                                  :
~Other information
  Забой,м: 2572
  КОЛОННА.   Диаметр,мм: 514; 304
  Башмак,м: 25; 1108
  Раствор (тип): глинистый
  Удельный вес, г/см3: 1.5
  Вязкость,с: 40
  УЭС р-ра,Омм 1.4  t=12град
  Эталонировки:
  ГК:1мкР/ч= 240 имп/мин
~ASCII Log Data
# ...
2243.0000 556.332   1.380 401.256   1.252 -999.250 -999.250 -999.250 -999.250 -999.250   7.355   1.513   1.317
2243.1000 556.043   1.362 401.222   1.293 -999.250 -999.250 -999.250 -999.250 -999.250   7.306   1.481   1.244
2243.2000 556.013   1.366 401.274   1.278 -999.250 -999.250 -999.250 -999.250 -999.250   7.488   1.453   1.203
2243.3000 556.302   1.388 401.326   1.224 -999.250 -999.250 -999.250 -999.250 -999.250   7.617   1.447   1.191
2243.4000 555.909   1.426 401.279   1.130 -999.250 -999.250 -999.250 -999.250 -999.250   7.577   1.448   1.197
2243.5000 555.767   1.442 401.232   1.091 -999.250 -999.250 -999.250 -999.250 -999.250   7.920   1.454   1.215
2243.6000 555.445   1.484 401.290   1.052 -999.250 -999.250 -999.250 -999.250 -999.250   8.274   1.482   1.233
2243.7000 555.202   1.510 401.395   1.052 -999.250 -999.250 -999.250 -999.250 -999.250   8.336   1.509   1.239
2243.8000 554.987   1.579 401.602   1.096 -999.250 -999.250 -999.250 -999.250 -999.250   8.350   1.535   1.232
2243.9000 555.206   1.622 401.704   1.139 -999.250 -999.250 -999.250 -999.250 -999.250   8.378   1.555   1.218
2244.0000 555.227   1.724 401.816   1.261 -999.250 -999.250 -999.250 -999.250 -999.250   8.458   1.570   1.202
2244.1000 555.662   1.783 401.825   1.339 -999.250 -999.250 -999.250 -999.250 -999.250   8.377   1.580   1.187
2244.2000 555.929   1.905 401.866   1.449 -999.250 -999.250 -999.250 -999.250 -999.250   8.066   1.606   1.180
2244.3000 555.822   1.969 401.897   1.482 -999.250 -999.250 -999.250 -999.250 -999.250   8.469   1.648   1.190
2244.4000 555.751   1.986 401.877   1.542 -999.250 -999.250 -999.250 -999.250 -999.250   8.711   1.688   1.215
2244.5000 555.504   1.939 401.825   1.570 -999.250 -999.250 -999.250 -999.250 -999.250   8.669   1.763   1.258
2244.6000 555.401   1.821 401.794   1.713 -999.250 -999.250 -999.250 -999.250 -999.250   8.920   1.868   1.312
2244.7000 555.436   1.750 401.815   1.830 -999.250 -999.250 -999.250 -999.250 -999.250   8.846   1.946   1.376
2244.8000 555.273   1.678 402.084   2.202 -999.250 -999.250 -999.250 -999.250 -999.250   8.547   2.010   1.443
2244.9000 555.132   1.701 402.332   2.458 -999.250 -999.250 -999.250 -999.250 -999.250   7.786   2.012   1.520
2245.0000 554.983   1.724 402.690   2.961 -999.250 -999.250 -999.250 -999.250 -999.250   6.773   1.959   1.614
2245.1000 555.113   1.718 402.800   3.207 -999.250 -999.250 -999.250 -999.250 -999.250   5.955   1.913   1.737
2245.2000 555.519   1.690 402.911   3.333 -999.250 -999.250 -999.250 -999.250 -999.250   5.794   1.867   1.904
2245.3000 555.461   1.591 402.969   3.213 -999.250 -999.250 -999.250 -999.250 -999.250   5.698   1.871   2.112
2245.4000 555.130   1.520 403.026   2.701 -999.250 -999.250 -999.250 -999.250 -999.250   5.942   1.845   2.356
2245.5000 555.211   1.425 402.919   2.309 -999.250 -999.250 -999.250 -999.250 -999.250   6.420   1.808   2.599
2245.6000 555.797   1.400 402.753   1.707 -999.250 -999.250 -999.250 -999.250 -999.250   6.982   1.770   2.805
2245.7000 555.956   1.340 402.296   1.497 -999.250 -999.250 -999.250 -999.250 -999.250   7.133   1.718   2.939
2245.8000 555.976   1.304 402.004   1.286 -999.250 -999.250 -999.250 -999.250 -999.250   7.360   1.673   2.974
2245.9000 556.001   1.240 401.600   1.171 -999.250 -999.250 -999.250 -999.250 -999.250   7.698   1.616   2.899
2246.0000 556.118   1.212 401.487   1.056 -999.250 -999.250 -999.250 -999.250 -999.250   8.007   1.550   2.723
2246.1000 556.232   1.176 401.376   0.889 -999.250 -999.250 -999.250 -999.250 -999.250   8.321   1.492   2.472
2246.2000 556.587   1.169 401.377   0.837 -999.250 -999.250 -999.250 -999.250 -999.250   8.686   1.446   2.179
2246.3000 556.795   1.186 401.427   0.756 -999.250 -999.250 -999.250 -999.250 -999.250   8.227   1.414   1.879
2246.4000 556.980   1.211 401.477   0.726 -999.250 -999.250 -999.250 -999.250 -999.250   8.255   1.372   1.595
2246.5000 556.848   1.226 401.549   0.707 -999.250 -999.250 -999.250 -999.250 -999.250   8.176   1.341   1.345
2246.6000 556.921   1.216 401.571   0.717 -999.250 -999.250 -999.250 -999.250 -999.250   8.242   1.335   1.137
2246.7000 557.080   1.206 401.668   0.737 -999.250 -999.250 -999.250 -999.250 -999.250   8.302   1.338   0.976
2246.8000 557.019   1.192 401.743   0.747 -999.250 -999.250 -999.250 -999.250 -999.250   8.334   1.347   0.856
2246.9000 557.190   1.179 401.790   0.804 -999.250 -999.250 -999.250 -999.250 -999.250   8.557   1.337   0.775
2247.0000 557.452   1.193 401.763   0.851 -999.250 -999.250 -999.250 -999.250 -999.250   8.708   1.327   0.723
2247.1000 557.480   1.221 401.735   1.017 -999.250 -999.250 -999.250 -999.250 -999.250   8.742   1.296   0.697
2247.2000 557.104   1.273 401.782   1.136 -999.250 -999.250 -999.250 -999.250 -999.250   8.699   1.266   0.693
2247.3000 556.675   1.297 401.830   1.333 -999.250 -999.250 -999.250 -999.250 -999.250   8.534   1.258   0.711
2247.4000 555.871   1.330 401.965   1.413 -999.250 -999.250 -999.250 -999.250 -999.250   8.627   1.256   0.752
2247.5000 555.635   1.339 402.052   1.448 -999.250 -999.250 -999.250 -999.250 -999.250   8.334   1.300   0.816
2247.6000 555.485   1.360 402.064   1.403 -999.250 -999.250 -999.250 -999.250 -999.250   8.616   1.345   0.903
2247.7000 556.236   1.371 401.988   1.358 -999.250 -999.250 -999.250 -999.250 -999.250   7.895   1.371   1.005
2247.8000 557.158   1.370 402.022   1.335 -999.250 -999.250 -999.250 -999.250 -999.250   7.609   1.369   1.113
2247.9000 557.616   1.359 402.133   1.312 -999.250 -999.250 -999.250 -999.250 -999.250   7.399   1.397   1.213
2248.0000 557.924   1.364 402.433   1.312 -999.250 -999.250 -999.250 -999.250 -999.250   7.263   1.439   1.298
2248.1000 557.801   1.381 402.622   1.335 -999.250 -999.250 -999.250 -999.250 -999.250   7.250   1.443   1.366
2248.2000 557.463   1.401 403.080   1.376 -999.250 -999.250 -999.250 -999.250 -999.250   7.028   1.441   1.414
2248.3000 557.310   1.404 403.347   1.394 -999.250 -999.250 -999.250 -999.250 -999.250   6.981   1.450   1.443
2248.4000 557.058   1.451 403.728   1.420 -999.250 -999.250 -999.250 -999.250 -999.250   7.161   1.458   1.456
2248.5000 556.997   1.495 403.841   1.428 -999.250 -999.250 -999.250 -999.250 -999.250   7.406   1.447   1.460
2248.6000 557.090   1.559 403.842   1.392 -999.250 -999.250 -999.250 -999.250 -999.250   7.249   1.474   1.464
2248.7000 556.987   1.579 403.729   1.349 -999.250 -999.250 -999.250 -999.250 -999.250   7.248   1.479   1.468
2248.8000 556.896   1.566 403.521   1.273 -999.250 -999.250 -999.250 -999.250 -999.250   6.994   1.507   1.469
2248.9000 557.403   1.532 403.427   1.240 -999.250 -999.250 -999.250 -999.250 -999.250   7.003   1.549   1.466
2249.0000 557.931   1.480 403.043   1.172 -999.250 -999.250 -999.250 -999.250 -999.250   7.082   1.609   1.455
2249.1000 558.230   1.462 402.755   1.136 -999.250 -999.250 -999.250 -999.250 -999.250   6.846   1.644   1.440
2249.2000 558.921   1.422 402.253   1.116 -999.250 -999.250 -999.250 -999.250 -999.250   6.729   1.651   1.420
2249.3000 559.630   1.399 402.039   1.132 -999.250 -999.250 -999.250 -999.250 -999.250   6.940   1.666   1.393
2249.4000 559.786   1.377 401.773   1.198 -999.250 -999.250 -999.250 -999.250 -999.250   7.335   1.654   1.360
2249.5000 559.680   1.346 401.721   1.247 -999.250 -999.250 -999.250 -999.250 -999.250   7.521   1.621   1.325
2249.6000 559.309   1.314 401.485   1.297 -999.250 -999.250 -999.250 -999.250 -999.250   7.860   1.585   1.289
2249.7000 558.537   1.256 401.302   1.344 -999.250 -999.250 -999.250 -999.250 -999.250   8.415   1.551   1.261
2249.8000 557.909   1.231 401.118   1.390 -999.250 -999.250 -999.250 -999.250 -999.250   8.932   1.504   1.242
2249.9000 557.603   1.207 400.992   1.440 -999.250 -999.250 -999.250 -999.250 -999.250   9.077   1.504   1.240
2250.0000 557.080   1.210 400.866   1.444 -999.250 -999.250 -999.250 -999.250 -999.250   8.876   1.451   1.255
2250.1000 556.560   1.216 400.863   1.482 -999.250 -999.250 -999.250 -999.250 -999.250   8.744   1.408   1.284
2250.2000 556.471   1.219 400.986   1.517 -999.250 -999.250 -999.250 -999.250 -999.250   8.414   1.364   1.321
