~Version Information
VERS.                     2.0 : CWLS Log ASCII Standart
WRAP.                     NO  : One line per depth step
~Well Information
STRT.M                      2020.3000  : Start Depth
STOP.M                      3250.0000  : Stop Depth
STEP.M                         0.1000  : Step
NULL.                         -999.25  : Null Value
COMP.      ООО"Кубаньгазпром"          : Company
WELL.      2р                          : Well
FLD .      Восточно-Прибрежная         : Field
LOC .                                  : Location
PROV.                                  : Province
SRVC.      ПФ"Кубаньгазгеофизика"      : Service Company
DATE.      3.01.2004 г                 : Log Date
UWI .                                  : Unique Well ID
~Curve Information
DEPT.M                                 :
ПСст.мВ                                :
N11М31.12                              :
ПС31.12                                :
А2  .                                  :
ПСст.мВ                                :
ПСст.мВ                                :
ПСст.мВ                                :
ПСст.мВ                                :
ПСст.мВ                                :
ГК4 .                                  :
N11M3.                                 :
A2M3.                                  :
~Other information
  Забой,м: 2572
  КОЛОННА.   Диаметр,мм: 514; 304
  Башмак,м: 25; 1108
  Раствор (тип): глинистый
  Удельный вес, г/см3: 1.5
  Вязкость,с: 40
  УЭС р-ра,Омм 1.4  t=12град
  Эталонировки:
  ГК:1мкР/ч= 240 имп/мин
~ASCII Log Data
# ...
2469.3000 568.008   0.909 398.835   0.593 -999.250 -999.250 -999.250 -999.250 -999.250   7.351   1.098   0.988
2469.4000 568.254   0.919 399.140   0.597 -999.250 -999.250 -999.250 -999.250 -999.250   7.179   1.098   0.931
2469.5000 568.330   0.921 399.444   0.579 -999.250 -999.250 -999.250 -999.250 -999.250   7.422   1.120   0.883
2469.6000 568.380   0.922 399.472   0.592 -999.250 -999.250 -999.250 -999.250 -999.250   7.332   1.158   0.842
2469.7000 568.382   0.935 399.066   0.605 -999.250 -999.250 -999.250 -999.250 -999.250   7.281   1.215   0.810
2469.8000 568.615   0.912 398.660   0.669 -999.250 -999.250 -999.250 -999.250 -999.250   7.141   1.249   0.783
2469.9000 568.714   0.889 398.246   0.698 -999.250 -999.250 -999.250 -999.250 -999.250   7.093   1.294   0.760
2470.0000 568.690   0.868 398.116   0.786 -999.250 -999.250 -999.250 -999.250 -999.250   6.958   1.329   0.745
2470.1000 568.496   0.881 397.849   0.895 -999.250 -999.250 -999.250 -999.250 -999.250   6.918   1.376   0.741
2470.2000 568.159   0.898 397.869   1.004 -999.250 -999.250 -999.250 -999.250 -999.250   7.621   1.414   0.753
2470.3000 567.826   0.930 397.890   1.089 -999.250 -999.250 -999.250 -999.250 -999.250   7.753   1.445   0.781
2470.4000 567.779   0.961 398.381   1.131 -999.250 -999.250 -999.250 -999.250 -999.250   8.029   1.467   0.827
2470.5000 567.553   0.990 398.713   1.173 -999.250 -999.250 -999.250 -999.250 -999.250   7.856   1.501   0.890
2470.6000 567.516   0.991 399.157   1.164 -999.250 -999.250 -999.250 -999.250 -999.250   7.833   1.529   0.959
2470.7000 567.489   0.988 399.321   1.148 -999.250 -999.250 -999.250 -999.250 -999.250   7.761   1.572   1.031
2470.8000 567.631   0.994 399.485   1.125 -999.250 -999.250 -999.250 -999.250 -999.250   7.825   1.589   1.100
2470.9000 568.150   1.001 399.407   1.103 -999.250 -999.250 -999.250 -999.250 -999.250   7.884   1.580   1.158
2471.0000 569.291   0.998 399.275   1.081 -999.250 -999.250 -999.250 -999.250 -999.250   8.167   1.582   1.201
2471.1000 569.294   0.986 399.011   1.057 -999.250 -999.250 -999.250 -999.250 -999.250   8.167   1.601   1.232
2471.2000 568.946   0.966 398.852   1.048 -999.250 -999.250 -999.250 -999.250 -999.250   7.755   1.641   1.249
2471.3000 568.863   0.983 398.693   1.035 -999.250 -999.250 -999.250 -999.250 -999.250   7.691   1.661   1.256
2471.4000 568.657   1.001 398.724   1.001 -999.250 -999.250 -999.250 -999.250 -999.250   7.677   1.697   1.246
2471.5000 568.890   1.017 398.782   0.968 -999.250 -999.250 -999.250 -999.250 -999.250   7.437   1.666   1.222
2471.6000 568.646   1.010 398.989   0.929 -999.250 -999.250 -999.250 -999.250 -999.250   7.577   1.631   1.191
2471.7000 568.690   1.019 399.061   0.921 -999.250 -999.250 -999.250 -999.250 -999.250   7.415   1.608   1.158
2471.8000 568.441   1.013 399.133   0.928 -999.250 -999.250 -999.250 -999.250 -999.250   7.531   1.592   1.125
2471.9000 568.117   1.006 398.974   0.949 -999.250 -999.250 -999.250 -999.250 -999.250   7.666   1.642   1.097
2472.0000 567.661   0.981 398.893   0.970 -999.250 -999.250 -999.250 -999.250 -999.250   7.619   1.696   1.081
2472.1000 567.379   0.978 398.741   0.986 -999.250 -999.250 -999.250 -999.250 -999.250   7.295   1.734   1.076
2472.2000 567.531   0.984 398.602   0.993 -999.250 -999.250 -999.250 -999.250 -999.250   7.060   1.762   1.074
2472.3000 567.651   0.995 398.463   1.001 -999.250 -999.250 -999.250 -999.250 -999.250   6.789   1.759   1.076
2472.4000 567.704   1.007 398.521   0.994 -999.250 -999.250 -999.250 -999.250 -999.250   6.953   1.749   1.075
2472.5000 567.726   1.004 398.647   0.991 -999.250 -999.250 -999.250 -999.250 -999.250   7.345   1.733   1.074
2472.6000 567.602   0.999 398.859   0.997 -999.250 -999.250 -999.250 -999.250 -999.250   7.481   1.698   1.073
2472.7000 567.713   1.003 398.999   0.974 -999.250 -999.250 -999.250 -999.250 -999.250   8.139   1.665   1.077
2472.8000 567.820   1.029 399.138   0.952 -999.250 -999.250 -999.250 -999.250 -999.250   8.176   1.655   1.089
2472.9000 567.705   1.054 399.264   0.916 -999.250 -999.250 -999.250 -999.250 -999.250   8.147   1.632   1.119
2473.0000 567.691   1.057 399.336   0.911 -999.250 -999.250 -999.250 -999.250 -999.250   7.991   1.616   1.163
2473.1000 567.779   1.042 399.418   0.910 -999.250 -999.250 -999.250 -999.250 -999.250   7.667   1.602   1.219
2473.2000 567.767   1.028 399.351   0.935 -999.250 -999.250 -999.250 -999.250 -999.250   7.622   1.572   1.279
2473.3000 567.758   1.013 399.284   0.960 -999.250 -999.250 -999.250 -999.250 -999.250   7.834   1.526   1.338
2473.4000 568.101   1.000 399.160   0.975 -999.250 -999.250 -999.250 -999.250 -999.250   7.628   1.503   1.391
2473.5000 567.953   0.987 399.115   0.968 -999.250 -999.250 -999.250 -999.250 -999.250   7.320   1.486   1.434
2473.6000 567.683   1.008 399.069   0.971 -999.250 -999.250 -999.250 -999.250 -999.250   7.648   1.497   1.458
2473.7000 567.715   1.016 399.072   0.979 -999.250 -999.250 -999.250 -999.250 -999.250   7.444   1.493   1.460
2473.8000 567.777   1.024 399.110   0.988 -999.250 -999.250 -999.250 -999.250 -999.250   7.398   1.513   1.442
2473.9000 568.016   1.004 399.148   0.972 -999.250 -999.250 -999.250 -999.250 -999.250   7.563   1.511   1.407
2474.0000 568.125   0.998 399.241   0.957 -999.250 -999.250 -999.250 -999.250 -999.250   7.403   1.509   1.364
2474.1000 568.222   0.994 399.267   0.943 -999.250 -999.250 -999.250 -999.250 -999.250   7.509   1.523   1.318
2474.2000 568.271   0.996 399.292   0.959 -999.250 -999.250 -999.250 -999.250 -999.250   7.600   1.538   1.280
2474.3000 568.298   0.994 399.292   0.976 -999.250 -999.250 -999.250 -999.250 -999.250   7.443   1.533   1.247
2474.4000 568.306   1.003 399.324   0.982 -999.250 -999.250 -999.250 -999.250 -999.250   7.467   1.525   1.223
2474.5000 567.810   1.010 399.363   0.974 -999.250 -999.250 -999.250 -999.250 -999.250   7.338   1.515   1.206
2474.6000 567.803   1.021 399.369   0.981 -999.250 -999.250 -999.250 -999.250 -999.250   6.966   1.505   1.190
2474.7000 567.671   1.011 399.260   0.986 -999.250 -999.250 -999.250 -999.250 -999.250   7.251   1.497   1.183
2474.8000 567.637   1.003 398.913   0.992 -999.250 -999.250 -999.250 -999.250 -999.250   7.420   1.491   1.184
2474.9000 567.729   0.961 398.571   0.969 -999.250 -999.250 -999.250 -999.250 -999.250   7.350   1.487   1.188
2475.0000 568.094   0.927 398.345   0.957 -999.250 -999.250 -999.250 -999.250 -999.250   7.532   1.485   1.197
2475.1000 568.095   0.906 398.475   0.947 -999.250 -999.250 -999.250 -999.250 -999.250   7.526   1.503   1.206
2475.2000 568.201   0.963 398.599   0.954 -999.250 -999.250 -999.250 -999.250 -999.250   7.572   1.503   1.217
2475.3000 568.481   1.021 398.768   0.961 -999.250 -999.250 -999.250 -999.250 -999.250   7.529   1.523   1.228
2475.4000 568.885   1.054 398.812   0.960 -999.250 -999.250 -999.250 -999.250 -999.250   7.662   1.539   1.236
2475.5000 568.650   1.041 399.138   0.954 -999.250 -999.250 -999.250 -999.250 -999.250   7.540   1.555   1.236
2475.6000 568.606   1.034 399.506   0.960 -999.250 -999.250 -999.250 -999.250 -999.250   7.912   1.567   1.231
2475.7000 568.728   1.058 399.874   0.981 -999.250 -999.250 -999.250 -999.250 -999.250   7.869   1.616   1.222
2475.8000 568.650   1.083 399.861   1.001 -999.250 -999.250 -999.250 -999.250 -999.250   7.760   1.681   1.216
2475.9000 568.581   1.073 399.762   1.000 -999.250 -999.250 -999.250 -999.250 -999.250   7.788   1.743   1.218
2476.0000 568.611   1.050 399.760   0.990 -999.250 -999.250 -999.250 -999.250 -999.250   7.824   1.816   1.238
2476.1000 568.780   1.026 399.834   0.980 -999.250 -999.250 -999.250 -999.250 -999.250   7.518   1.856   1.282
2476.2000 568.716   1.036 399.908   0.973 -999.250 -999.250 -999.250 -999.250 -999.250   7.097   1.844   1.367
2476.3000 569.139   1.037 399.853   0.967 -999.250 -999.250 -999.250 -999.250 -999.250   6.491   1.817   1.502
2476.4000 569.405   1.039 399.973   0.961 -999.250 -999.250 -999.250 -999.250 -999.250   6.124   1.783   1.697
2476.5000 569.314   1.031 400.094   0.976 -999.250 -999.250 -999.250 -999.250 -999.250   6.063   1.770   1.944
