~Version Information
VERS.                     2.0 : CWLS Log ASCII Standart
WRAP.                     NO  : One line per depth step
~Well Information
STRT.M                      2020.3000  : Start Depth
STOP.M                      3250.0000  : Stop Depth
STEP.M                         0.1000  : Step
NULL.                         -999.25  : Null Value
COMP.      ООО"Кубаньгазпром"          : Company
WELL.      2р                          : Well
FLD .      Восточно-Прибрежная         : Field
LOC .                                  : Location
PROV.                                  : Province
SRVC.      ПФ"Кубаньгазгеофизика"      : Service Company
DATE.      3.01.2004 г                 : Log Date
UWI .                                  : Unique Well ID
~Curve Information
DEPT.M                                 :
ПСст.мВ                                :
N11М31.12                              :
ПС31.12                                :
А2  .                                  :
ПСст.мВ                                :
ПСст.мВ                                :
ПСст.мВ                                :
ПСст.мВ                                :
ПСст.мВ                                :
ГК4 .                                  :
N11M3.                                 :
A2M3.                                  :
~Other information
  Забой,м: 2572
  КОЛОННА.   Диаметр,мм: 514; 304
  Башмак,м: 25; 1108
  Раствор (тип): глинистый
  Удельный вес, г/см3: 1.5
  Вязкость,с: 40
  УЭС р-ра,Омм 1.4  t=12град
  Эталонировки:
  ГК:1мкР/ч= 240 имп/мин
~ASCII Log Data
# ...
2170.0000 622.881   0.536 478.617   0.196 -999.250 -999.250 -999.250 -999.250 -999.250   3.684   0.661   0.629
2170.1000 623.122   0.566 478.133   0.196 -999.250 -999.250 -999.250 -999.250 -999.250   3.280   0.625   0.582
2170.2000 622.570   0.611 477.817   0.202 -999.250 -999.250 -999.250 -999.250 -999.250   3.404   0.622   0.525
2170.3000 621.761   0.715 477.330   0.209 -999.250 -999.250 -999.250 -999.250 -999.250   3.472   0.629   0.462
2170.4000 620.658   0.794 477.158   0.233 -999.250 -999.250 -999.250 -999.250 -999.250   3.671   0.643   0.402
2170.5000 619.541   0.873 476.865   0.251 -999.250 -999.250 -999.250 -999.250 -999.250   3.895   0.677   0.347
2170.6000 618.339   0.899 476.742   0.293 -999.250 -999.250 -999.250 -999.250 -999.250   4.151   0.750   0.305
2170.7000 617.235   0.905 475.871   0.316 -999.250 -999.250 -999.250 -999.250 -999.250   4.417   0.839   0.278
2170.8000 616.971   0.913 474.494   0.370 -999.250 -999.250 -999.250 -999.250 -999.250   4.412   0.922   0.265
2170.9000 617.194   0.915 473.117   0.400 -999.250 -999.250 -999.250 -999.250 -999.250   4.217   1.009   0.266
2171.0000 617.391   0.958 472.085   0.444 -999.250 -999.250 -999.250 -999.250 -999.250   3.998   1.060   0.281
2171.1000 617.394   0.999 471.680   0.457 -999.250 -999.250 -999.250 -999.250 -999.250   3.573   1.113   0.308
2171.2000 617.353   1.179 471.002   0.487 -999.250 -999.250 -999.250 -999.250 -999.250   3.096   1.129   0.342
2171.3000 617.518   1.318 470.730   0.504 -999.250 -999.250 -999.250 -999.250 -999.250   2.935   1.155   0.383
2171.4000 617.314   1.706 470.807   0.531 -999.250 -999.250 -999.250 -999.250 -999.250   3.102   1.190   0.426
2171.5000 616.624   1.955 471.156   0.542 -999.250 -999.250 -999.250 -999.250 -999.250   3.137   1.202   0.469
2171.6000 615.160   2.510 472.020   0.559 -999.250 -999.250 -999.250 -999.250 -999.250   3.326   1.288   0.508
2171.7000 613.492   2.816 472.534   0.564 -999.250 -999.250 -999.250 -999.250 -999.250   3.247   1.406   0.537
2171.8000 611.590   3.156 473.194   0.562 -999.250 -999.250 -999.250 -999.250 -999.250   3.387   1.620   0.559
2171.9000 610.599   3.190 473.340   0.554 -999.250 -999.250 -999.250 -999.250 -999.250   3.350   1.917   0.575
2172.0000 609.941   3.001 473.171   0.579 -999.250 -999.250 -999.250 -999.250 -999.250   3.526   2.268   0.585
2172.1000 609.910   2.778 472.856   0.611 -999.250 -999.250 -999.250 -999.250 -999.250   3.412   2.656   0.592
2172.2000 610.077   2.363 472.037   0.685 -999.250 -999.250 -999.250 -999.250 -999.250   3.308   2.965   0.600
2172.3000 610.993   2.171 471.534   0.728 -999.250 -999.250 -999.250 -999.250 -999.250   3.544   3.164   0.614
2172.4000 611.792   1.820 470.582   0.772 -999.250 -999.250 -999.250 -999.250 -999.250   3.506   3.206   0.634
2172.5000 613.050   1.661 470.132   0.774 -999.250 -999.250 -999.250 -999.250 -999.250   3.447   3.128   0.665
2172.6000 614.249   1.445 469.675   0.783 -999.250 -999.250 -999.250 -999.250 -999.250   3.328   2.950   0.702
2172.7000 614.795   1.389 469.668   0.791 -999.250 -999.250 -999.250 -999.250 -999.250   3.216   2.685   0.738
2172.8000 614.472   1.314 470.336   0.736 -999.250 -999.250 -999.250 -999.250 -999.250   3.473   2.415   0.771
2172.9000 613.169   1.296 471.012   0.674 -999.250 -999.250 -999.250 -999.250 -999.250   3.748   2.162   0.796
2173.0000 611.634   1.257 472.339   0.611 -999.250 -999.250 -999.250 -999.250 -999.250   4.172   1.922   0.812
2173.1000 610.410   1.235 472.992   0.610 -999.250 -999.250 -999.250 -999.250 -999.250   4.542   1.736   0.817
2173.2000 609.323   1.203 474.032   0.606 -999.250 -999.250 -999.250 -999.250 -999.250   4.684   1.620   0.812
2173.3000 608.667   1.193 474.420   0.587 -999.250 -999.250 -999.250 -999.250 -999.250   4.985   1.533   0.798
2173.4000 608.872   1.159 475.490   0.567 -999.250 -999.250 -999.250 -999.250 -999.250   5.106   1.483   0.779
2173.5000 609.664   1.135 476.171   0.543 -999.250 -999.250 -999.250 -999.250 -999.250   5.106   1.436   0.762
2173.6000 610.712   1.122 477.539   0.536 -999.250 -999.250 -999.250 -999.250 -999.250   4.940   1.407   0.747
2173.7000 612.458   1.134 478.226   0.530 -999.250 -999.250 -999.250 -999.250 -999.250   4.924   1.407   0.733
2173.8000 613.799   1.159 479.600   0.530 -999.250 -999.250 -999.250 -999.250 -999.250   4.676   1.397   0.722
2173.9000 615.178   1.171 480.287   0.548 -999.250 -999.250 -999.250 -999.250 -999.250   4.337   1.373   0.709
2174.0000 616.700   1.201 481.535   0.566 -999.250 -999.250 -999.250 -999.250 -999.250   3.898   1.389   0.694
2174.1000 617.831   1.150 482.097   0.612 -999.250 -999.250 -999.250 -999.250 -999.250   3.735   1.367   0.681
2174.2000 618.810   1.100 482.500   0.640 -999.250 -999.250 -999.250 -999.250 -999.250   3.672   1.349   0.675
2174.3000 620.101   1.032 482.342   0.649 -999.250 -999.250 -999.250 -999.250 -999.250   3.653   1.329   0.677
2174.4000 620.919   1.003 481.847   0.630 -999.250 -999.250 -999.250 -999.250 -999.250   3.438   1.333   0.688
2174.5000 621.418   0.973 480.722   0.599 -999.250 -999.250 -999.250 -999.250 -999.250   3.169   1.340   0.704
2174.6000 621.782   0.957 479.597   0.587 -999.250 -999.250 -999.250 -999.250 -999.250   3.204   1.312   0.727
2174.7000 621.735   0.970 478.809   0.570 -999.250 -999.250 -999.250 -999.250 -999.250   3.089   1.264   0.747
2174.8000 622.700   0.962 477.797   0.565 -999.250 -999.250 -999.250 -999.250 -999.250   2.982   1.214   0.765
2174.9000 622.728   0.942 476.785   0.538 -999.250 -999.250 -999.250 -999.250 -999.250   2.959   1.169   0.774
2175.0000 622.271   0.919 475.079   0.517 -999.250 -999.250 -999.250 -999.250 -999.250   2.876   1.134   0.776
2175.1000 621.869   0.916 474.384   0.490 -999.250 -999.250 -999.250 -999.250 -999.250   2.904   1.090   0.770
2175.2000 620.721   0.921 472.864   0.484 -999.250 -999.250 -999.250 -999.250 -999.250   3.161   1.054   0.755
2175.3000 620.034   0.927 472.037   0.493 -999.250 -999.250 -999.250 -999.250 -999.250   3.415   1.026   0.730
2175.4000 619.428   0.946 470.603   0.507 -999.250 -999.250 -999.250 -999.250 -999.250   3.857   1.026   0.696
2175.5000 618.434   0.958 469.995   0.537 -999.250 -999.250 -999.250 -999.250 -999.250   3.839   1.033   0.661
2175.6000 616.961   0.992 468.442   0.553 -999.250 -999.250 -999.250 -999.250 -999.250   4.168   1.065   0.629
2175.7000 615.486   1.021 467.498   0.572 -999.250 -999.250 -999.250 -999.250 -999.250   4.338   1.078   0.603
2175.8000 613.963   1.049 464.776   0.574 -999.250 -999.250 -999.250 -999.250 -999.250   4.648   1.090   0.586
2175.9000 613.105   1.045 462.997   0.561 -999.250 -999.250 -999.250 -999.250 -999.250   4.549   1.075   0.579
2176.0000 612.418   1.036 459.103   0.545 -999.250 -999.250 -999.250 -999.250 -999.250   4.657   1.077   0.579
2176.1000 611.913   0.996 455.098   0.504 -999.250 -999.250 -999.250 -999.250 -999.250   4.230   1.077   0.587
2176.2000 611.086   0.965 451.093   0.478 -999.250 -999.250 -999.250 -999.250 -999.250   4.027   1.100   0.601
2176.3000 610.519   0.986 448.074   0.443 -999.250 -999.250 -999.250 -999.250 -999.250   3.873   1.122   0.610
2176.4000 609.437   1.037 446.945   0.434 -999.250 -999.250 -999.250 -999.250 -999.250   3.953   1.125   0.616
2176.5000 607.780   1.122 444.953   0.462 -999.250 -999.250 -999.250 -999.250 -999.250   4.148   1.123   0.618
2176.6000 604.386   1.155 444.090   0.499 -999.250 -999.250 -999.250 -999.250 -999.250   4.353   1.116   0.617
2176.7000 600.591   1.187 442.249   0.575 -999.250 -999.250 -999.250 -999.250 -999.250   5.097   1.109   0.613
2176.8000 597.252   1.186 441.270   0.614 -999.250 -999.250 -999.250 -999.250 -999.250   5.519   1.123   0.613
2176.9000 594.221   1.171 439.608   0.652 -999.250 -999.250 -999.250 -999.250 -999.250   6.391   1.137   0.612
2177.0000 591.579   1.157 438.924   0.630 -999.250 -999.250 -999.250 -999.250 -999.250   6.697   1.173   0.616
2177.1000 589.605   1.136 438.220   0.609 -999.250 -999.250 -999.250 -999.250 -999.250   6.980   1.186   0.620
2177.2000 588.607   1.129 438.200   0.588 -999.250 -999.250 -999.250 -999.250 -999.250   7.123   1.196   0.626
